,Unnamed: 0,lat,lon,timestamp,amenity,name,tags
0,64,49.2457903,-122.8916363,2018-05-05T21:21:46.000-07:00,restaurant,Pho 99,{'cuisine': 'vietnamese'}
1,73,49.1674933,-122.6674453,2019-06-07T13:28:04.000-07:00,restaurant,Boston Pizza,"{'brand:wikidata': 'Q894578', 'addr:housenumber': '20090', 'brand:wikipedia': 'en:Boston Pizza', 'cuisine': 'pizza', 'name:en': 'Boston Pizza', 'addr:street': '91A Avenue', 'brand': 'Boston Pizza'}"
2,144,49.2634241,-123.1173128,2018-08-30T03:12:10.000-07:00,restaurant,Cactus Club Cafe,{}
3,170,49.2257668,-122.9968006,2019-07-20T18:37:01.000-07:00,restaurant,Nando's,"{'brand:wikidata': 'Q3472954', 'level': '1', 'brand:wikipedia': ""en:Nando's"", 'description': 'They specialize in flame-grilled chicken.', 'cuisine': 'chicken;portuguese', 'brand': ""Nando's""}"
4,193,49.1694686,-122.6657545,2019-09-13T13:56:59.000-07:00,restaurant,The Old Spaghetti Factory,"{'addr:housenumber': '20077', 'addr:street': '91A Avenue', 'addr:city': 'Langley'}"
5,202,49.274321,-123.1237748,2020-02-19T07:58:37.000-08:00,restaurant,Tasty Indian Bistro,"{'addr:province': 'BC', 'addr:housenumber': '1261', 'addr:street': 'Hamilton Street', 'addr:city': 'Vancouver'}"
6,231,49.1468811,-122.8910518,2020-03-15T00:44:42.000-07:00,restaurant,Cactus Club Cafe,"{'addr:province': 'BC', 'addr:housenumber': '7907', 'addr:street': 'Scott Road', 'addr:city': 'Delta'}"
7,236,49.1711386,-123.1360519,2019-10-29T03:23:55.000-07:00,restaurant,Boston Pizza,"{'brand:wikidata': 'Q894578', 'cuisine': 'pizza', 'brand': 'Boston Pizza', 'brand:wikipedia': 'en:Boston Pizza', 'addr:city': 'Richmond'}"
8,237,49.1343339,-123.0651422,2019-09-13T13:56:49.000-07:00,restaurant,The Old Spaghetti Factory,"{'cuisine': 'italian', 'addr:housenumber': '14200', 'addr:street': 'Entertainment Boulevard', 'addr:unit': '110', 'addr:city': 'Richmond'}"
9,238,49.1717889,-123.1359234,2019-05-27T13:45:24.000-07:00,restaurant,White Spot,"{'brand:wikidata': 'Q7995414', 'cuisine': 'burger', 'brand': 'White Spot', 'brand:wikipedia': 'en:White Spot'}"
10,247,49.2305371,-123.007442,2019-05-27T03:58:22.000-07:00,restaurant,Nando's,"{'brand:wikidata': 'Q3472954', 'addr:housenumber': '4334', 'website': 'https://www.nandos.ca/eat/restaurants/kingsway', 'phone': '+1-604-434-6220', 'brand:wikipedia': ""en:Nando's"", 'opening_hours': 'Mo-Th 11:00-22:00; Fr-Sa 11:00-22:30; Su 11:00-22:00', 'cuisine': 'chicken;portuguese', 'name:en': ""Nando's"", 'addr:street': 'Kingsway', 'brand': ""Nando's""}"
11,256,49.1863895,-122.8474565,2019-08-29T19:49:18.000-07:00,restaurant,Boston Pizza,"{'brand:wikidata': 'Q894578', 'cuisine': 'pizza', 'name:en': 'Boston Pizza', 'brand': 'Boston Pizza', 'brand:wikipedia': 'en:Boston Pizza'}"
12,263,49.035414,-122.2663773,2019-09-02T22:08:26.000-07:00,restaurant,Cactus Club Cafe,"{'opening_hours': 'Su-Th 11:00-00:00; Fr-Sa 11:00-01:00', 'website': 'https://www.cactusclubcafe.com/location/abbotsford', 'outdoor_seating': 'yes', 'phone': '+1-604-852-2582', 'addr:unit': 'B'}"
13,266,49.2764454,-123.1195159,2019-09-23T15:35:32.000-07:00,restaurant,Tacofino,"{'payment:credit_cards': 'yes', 'cuisine': 'mexican', 'addr:postcode': 'V6B 5P9', 'addr:city': 'Vancouver', 'addr:housenumber': '1025', 'phone': '+1-778-379-8226', 'drive_through': 'no', 'opening_hours': 'Su-Th 11:00-22:00, Fr,Sa 11:00-24:00', 'name:en': 'Tacofino', 'outdoor_seating': 'yes', 'addr:street': 'Mainland Street', 'payment:debit_cards': 'yes', 'email': 'yaletown@tacofino.com'}"
14,274,49.1784334,-123.121667,2020-04-17T21:26:32.000-07:00,restaurant,Nando's,"{'brand:wikidata': 'Q3472954', 'addr:housenumber': '4711', 'brand:wikipedia': ""en:Nando's"", 'cuisine': 'chicken;portuguese', 'addr:street': 'McClelland Road', 'brand': ""Nando's"", 'addr:city': 'Richmond'}"
15,290,49.1710207,-123.139394,2019-09-13T13:57:03.000-07:00,restaurant,Mui Garden,"{'addr:housenumber': '5960', 'addr:street': 'Minoru Boulevard', 'addr:city': 'Richmond'}"
16,313,49.2637838,-123.1393347,2019-07-08T18:37:20.000-07:00,restaurant,Bob Likes Thai Food,"{'wheelchair': 'limited', 'addr:housenumber': '1521', 'website': 'http://boblikesthaifood.com', 'phone': '+1-604-558-3320', 'smoking': 'no', 'cuisine': 'thai', 'outdoor_seating': 'no', 'addr:street': 'West Broadway'}"
17,342,49.3244571,-123.1076419,2019-09-13T13:57:03.000-07:00,restaurant,C-Lovers Fish & Chips,"{'addr:housenumber': '1660', 'addr:street': 'Pemberton Avenue', 'addr:city': 'District of North Vancouver'}"
18,343,49.3240623,-123.1087802,2019-09-13T13:57:03.000-07:00,restaurant,White Spot,"{'brand:wikidata': 'Q7995414', 'addr:housenumber': '107-1226', 'brand:wikipedia': 'en:White Spot', 'cuisine': 'burger', 'addr:street': 'Marine Drive', 'brand': 'White Spot', 'addr:city': 'District of North Vancouver'}"
19,361,49.3556326,-123.1059033,2019-09-13T13:56:58.000-07:00,restaurant,Sushi Mori,"{'addr:housenumber': '4740', 'addr:street': 'Capilano Road', 'addr:postcode': 'V7R 4K3', 'takeaway': 'yes', 'addr:city': 'North Vancouver'}"
20,375,49.2334631,-123.034937,2019-09-13T13:57:02.000-07:00,restaurant,Peaceful Restaurant,"{'addr:housenumber': '3320', 'addr:street': 'Kingsway', 'addr:city': 'Vancouver'}"
21,378,49.2340779,-123.0353715,2019-09-13T13:57:02.000-07:00,restaurant,The Captain's Boil,"{'addr:housenumber': '3309', 'addr:street': 'Kingsway', 'addr:city': 'Vancouver'}"
22,415,49.12737,-122.8452404,2017-02-26T17:48:55.000-08:00,restaurant,Denny's,"{'name:en': ""Denny's"", 'addr:street': 'King George Boulevard'}"
23,417,49.253994,-123.2353546,2014-11-07T06:05:32.000-08:00,restaurant,Togo Sushi,"{'addr:housenumber': '3380', 'website': 'http://www.togosushi.ca/', 'cuisine': 'sushi', 'addr:street': 'Shrum Lane', 'entrance': 'yes', 'addr:postcode': 'V6S 0B9', 'addr:city': 'Vancouver'}"
24,424,49.2230985,-122.9821688,2019-07-02T01:21:58.000-07:00,restaurant,Denny's,"{'brand:wikidata': 'Q1189695', 'cuisine': 'american', 'brand': ""Denny's"", 'brand:wikipedia': ""en:Denny's""}"
25,426,49.2204967,-122.9757219,2018-07-11T15:23:00.000-07:00,restaurant,Triple O's,"{'wheelchair': 'yes', 'delivery': 'no', 'addr:housenumber': '6038', 'website': 'https://www.whitespot.ca', 'drive_through': 'yes', 'opening_hours': 'Mo-Su 08:00-23:00', 'outdoor_seating': 'yes', 'addr:street': 'Kingsway', 'takeaway': 'yes', 'capacity': '60'}"
26,432,49.255495,-122.7466809,2019-09-10T18:06:48.000-07:00,restaurant,White Spot,"{'brand:wikidata': 'Q7995414', 'cuisine': 'burger', 'brand': 'White Spot', 'brand:wikipedia': 'en:White Spot'}"
27,458,49.226799,-122.9937567,2020-01-06T05:51:58.000-08:00,restaurant,Chongqing,"{'addr:housenumber': '4909', 'website': 'https://chong-qing-restaurant-online-ordering.securebrygid.com/', 'phone': '+1-604-558-0101', 'smoking': 'no', 'opening_hours': 'Su-Sa 11:00-22:00', 'cuisine': 'chinese', 'outdoor_seating': 'no', 'addr:street': 'Kingsway'}"
28,460,49.2694998,-123.1077015,2015-08-01T16:31:21.000-07:00,restaurant,The Flying Pig,"{'addr:housenumber': '127', 'addr:street': 'West 2nd Avenue'}"
29,466,49.2293878,-123.0904982,2019-11-07T19:56:30.000-08:00,restaurant,Pizza Hut,"{'brand:wikidata': 'Q191615', 'cuisine': 'pizza', 'brand': 'Pizza Hut', 'brand:wikipedia': 'en:Pizza Hut'}"
30,469,49.2268102,-123.0040761,2019-03-18T03:17:29.000-07:00,restaurant,Boston Pizza,"{'brand:wikidata': 'Q894578', 'cuisine': 'pizza', 'name:en': 'Boston Pizza', 'brand': 'Boston Pizza', 'brand:wikipedia': 'en:Boston Pizza'}"
31,471,49.226354,-123.0039637,2019-09-10T18:50:44.000-07:00,restaurant,Neptune Wonton Noodle,"{'cuisine': 'chinese', 'name:en': 'Neptune Wonton Noodle'}"
32,472,49.226408,-123.0036228,2019-07-07T03:58:25.000-07:00,restaurant,Freshii,"{'brand:wikidata': 'Q5503051', 'cuisine': 'salad', 'name:en': 'Freshii', 'brand': 'Freshii', 'brand:wikipedia': 'en:Freshii'}"
33,478,49.2632255,-123.1333895,2019-08-29T18:25:42.000-07:00,restaurant,Denny's,"{'brand:wikidata': 'Q1189695', 'addr:housenumber': '1296', 'phone': '+1-604-731-9033', 'brand:wikipedia': ""en:Denny's"", 'cuisine': 'american', 'addr:street': 'West Broadway', 'brand': ""Denny's""}"
34,484,49.2503562,-123.1007457,2019-09-02T22:08:25.000-07:00,restaurant,Sun Sui Wah Seafood Restaurant,"{'addr:housenumber': '3888', 'website': 'http://www.sunsuiwah.com', 'phone': '+1-604-872-8822', 'opening_hours': '10:00-15:00,17:00-22:30', 'cuisine': 'chinese;dim sum', 'addr:street': 'Main Street'}"
35,504,49.2300329,-123.003695,2019-09-13T13:57:03.000-07:00,restaurant,Dinesty Dumpling House,"{'addr:housenumber': '4501', 'addr:street': 'Kingsway', 'addr:unit': '104', 'addr:city': 'Burnaby'}"
36,506,49.2317641,-123.0091627,2019-09-13T13:57:03.000-07:00,restaurant,Pizza Hut,"{'brand:wikidata': 'Q191615', 'addr:housenumber': '4287', 'brand:wikipedia': 'en:Pizza Hut', 'cuisine': 'pizza', 'addr:street': 'Kingsway', 'brand': 'Pizza Hut', 'addr:unit': '1', 'addr:city': 'Burnaby'}"
37,520,49.2717708,-123.0697537,2015-12-01T03:10:54.000-08:00,restaurant,Donair Town,"{'addr:housenumber': '1433', 'addr:street': 'Commercial Drive', 'addr:city': 'Vancouver'}"
38,536,49.0910725,-122.6074795,2019-09-13T13:57:03.000-07:00,restaurant,Panago Pizza,"{'addr:housenumber': '22259', 'addr:street': '48 Avenue', 'addr:postcode': 'V3A 3N4', 'addr:unit': '301', 'addr:city': 'Langley'}"
39,541,49.2761259,-123.1206022,2017-07-31T04:56:18.000-07:00,restaurant,Wild Tale,"{'addr:housenumber': '1082', 'name:en': 'Wild Tale', 'addr:street': 'Hamilton Street'}"
40,549,49.218154,-122.6436783,2019-09-13T13:57:02.000-07:00,restaurant,White Spot,"{'addr:housenumber': '20855', 'addr:street': 'Lougheed Highway', 'addr:city': 'Maple Ridge'}"
41,564,49.1980237,-122.9785339,2019-09-11T03:48:59.000-07:00,restaurant,Pizza Hut,"{'brand:wikidata': 'Q191615', 'addr:housenumber': '170-7515', 'brand:wikipedia': 'en:Pizza Hut', 'cuisine': 'pizza', 'takeaway': 'yes', 'brand': 'Pizza Hut'}"
42,572,49.2798153,-123.1236381,2019-08-29T17:51:24.000-07:00,restaurant,Freshii,"{'brand:wikidata': 'Q5503051', 'brand:wikipedia': 'en:Freshii', 'opening_hours': 'Mo-Fr 11:00-20:00; Sa-Su 11:00-17:00', 'cuisine': 'salad', 'name:en': 'Freshii', 'addr:street': 'Nelson Street', 'brand': 'Freshii'}"
43,575,49.0458177,-122.7972582,2017-01-26T20:28:09.000-08:00,restaurant,Sushi Mori,"{'level': '0', 'cuisine': 'sushi'}"
44,577,49.172236,-123.1358351,2019-10-27T17:08:25.000-07:00,restaurant,Dinesty Dumpling House,"{'website': 'http://dinesty.ca/', 'cuisine': 'chinese', 'addr:postcode': 'V6X 3J9', 'addr:unit': '160', 'addr:city': 'Richmond', 'addr:housenumber': '8111', 'phone': '+1-604-303-7772', 'smoking': 'no', 'opening_hours': 'Mo-Su 11:00-15:00,17:30-22:00', 'name:en': 'Dinesty Dumpling House', 'addr:street': 'Ackroyd Road', 'name:zh_pinyin': '聚'}"
45,591,49.222971,-122.9841291,2019-07-02T01:21:58.000-07:00,restaurant,White Spot,"{'brand:wikidata': 'Q7995414', 'addr:housenumber': '5550', 'website': 'http://www.whitespot.com', 'brand:wikipedia': 'en:White Spot', 'cuisine': 'burger', 'addr:street': 'Kingsway', 'addr:postcode': 'V5H 2G2', 'brand': 'White Spot'}"
46,595,49.2290001,-123.000461,2019-03-19T01:53:30.000-07:00,restaurant,Cactus Club Cafe,"{'cuisine': 'regional', 'addr:housenumber': '4653', 'website': 'https://www.cactusclubcafe.com/', 'addr:street': 'Kingsway', 'addr:postcode': 'V5H 4L3'}"
47,622,49.227687,-123.0904914,2019-09-13T13:57:02.000-07:00,restaurant,Deer Garden Signatures,"{'addr:housenumber': '6270', 'addr:street': 'Fraser Street', 'addr:city': 'Vancouver'}"
48,646,49.2493978,-123.0739174,2019-09-13T13:57:04.000-07:00,restaurant,Icy Bar,"{'addr:housenumber': '1475', 'addr:street': 'Kingsway', 'addr:city': 'Vancouver'}"
49,671,49.2376572,-123.1556393,2019-09-13T13:57:04.000-07:00,restaurant,White Spot,"{'addr:housenumber': '5367', 'addr:street': 'West Boulevard', 'addr:city': 'Vancouver'}"
50,685,49.263672,-123.20716,2019-09-13T13:57:04.000-07:00,restaurant,Burgoo,"{'addr:housenumber': '4434', 'addr:street': 'West 10th Avenue', 'addr:city': 'Vancouver'}"
51,687,49.2637428,-123.2104101,2019-09-13T13:57:04.000-07:00,restaurant,Pizza Hut,"{'brand:wikidata': 'Q191615', 'addr:housenumber': '4540', 'brand:wikipedia': 'en:Pizza Hut', 'cuisine': 'pizza', 'addr:street': 'West 10th Avenue', 'brand': 'Pizza Hut', 'addr:city': 'Vancouver'}"
52,719,49.0348989,-122.8008819,2019-09-13T13:57:05.000-07:00,restaurant,Lee Yuen Seafood Restaurant,"{'cuisine': 'chinese', 'addr:housenumber': '1812', 'addr:street': '152 Street', 'addr:unit': '101', 'addr:city': 'Surrey'}"
53,720,49.0375485,-122.8009329,2019-09-13T13:57:05.000-07:00,restaurant,Boston Pizza,"{'brand:wikidata': 'Q894578', 'addr:housenumber': '1956', 'brand:wikipedia': 'en:Boston Pizza', 'cuisine': 'pizza', 'addr:street': '152 Street', 'brand': 'Boston Pizza', 'addr:city': 'Surrey'}"
54,722,49.0463697,-122.8016813,2019-09-13T13:57:05.000-07:00,restaurant,IHOP,"{'brand:wikidata': 'Q1185675', 'addr:housenumber': '2429', 'brand:wikipedia': 'en:IHOP', 'cuisine': 'pancake', 'addr:street': '152 Street', 'brand': 'IHOP', 'addr:unit': '107', 'addr:city': 'Surrey'}"
55,724,49.0452315,-122.7786492,2019-09-13T13:57:05.000-07:00,restaurant,Browns Socialhouse,"{'addr:housenumber': '16030', 'addr:street': '24 Avenue', 'addr:unit': '105', 'addr:city': 'Surrey'}"
56,727,49.0472452,-122.7839835,2019-09-13T13:57:05.000-07:00,restaurant,Noodlebox,"{'addr:housenumber': '15785', 'addr:street': 'Croydon Drive', 'addr:unit': '110', 'addr:city': 'Surrey'}"
57,733,49.044654,-122.7772023,2019-09-13T13:57:05.000-07:00,restaurant,Big Star Sandwich Co.,"{'addr:housenumber': '16050', 'addr:street': '24 Avenue', 'addr:unit': '155', 'addr:city': 'Surrey'}"
58,736,49.0451866,-122.7781347,2019-09-13T13:57:05.000-07:00,restaurant,Freshii,"{'brand:wikidata': 'Q5503051', 'addr:housenumber': '16030', 'brand:wikipedia': 'en:Freshii', 'cuisine': 'salad', 'addr:street': '24 Avenue', 'brand': 'Freshii', 'addr:unit': '125', 'addr:city': 'Surrey'}"
59,741,49.0292578,-122.8005183,2019-09-13T13:57:05.000-07:00,restaurant,Pho 777 Vietnamese Restaurant,"{'cuisine': 'vietnamese', 'addr:housenumber': '15230', 'addr:street': 'Russell Avenue', 'addr:city': 'White Rock'}"
60,746,49.0307761,-122.7993521,2019-09-13T13:57:05.000-07:00,restaurant,Silver Dragon Restaurant,"{'cuisine': 'chinese', 'addr:housenumber': '1564', 'addr:street': 'George Street', 'addr:city': 'White Rock'}"
61,747,49.2188492,-122.9645805,2019-09-13T13:57:02.000-07:00,restaurant,Deer Garden Signatures,"{'addr:housenumber': '7150', 'addr:street': 'Sperling Avenue', 'addr:city': 'Burnaby'}"
62,765,49.2818319,-123.1234128,2019-08-29T17:57:11.000-07:00,restaurant,Boston Pizza,"{'brand:wikidata': 'Q894578', 'opening_hours': 'Su-Th 11:00-00:00; Fr-Sa 11:00-02:00', 'cuisine': 'pizza', 'brand': 'Boston Pizza', 'brand:wikipedia': 'en:Boston Pizza'}"
63,785,49.226149,-122.9917461,2018-04-22T05:10:26.000-07:00,restaurant,Tian Shi Fu Restaurant,"{'addr:housenumber': '5021', 'addr:street': 'Kingsway', 'addr:postcode': 'V5H 2E5', 'addr:city': 'Burnaby'}"
64,803,49.10485,-122.8028182,2020-04-17T15:41:10.000-07:00,restaurant,Chopped Leaf,"{'addr:province': 'BC', 'addr:housenumber': '15161', 'website': 'https://www.choppedleaf.ca/', 'phone': '+1-604-574-0024', 'addr:country': 'CA', 'addr:street': '56 Ave', 'addr:postcode': 'V3S 1G0', 'addr:unit': '100', 'addr:city': 'Surrey'}"
65,820,49.1856947,-122.801637,2017-08-21T18:26:26.000-07:00,restaurant,Nando's,{}
66,826,49.2799326,-123.1302522,2019-09-18T23:00:49.000-07:00,restaurant,Banana Leaf,"{'addr:housenumber': '1043', 'website': 'https://www.bananaleaf-vancouver.com/', 'phone': '+1-604-669-3389', 'opening_hours': 'Mo-Su 11:30-22:00', 'cuisine': 'malaysian', 'outdoor_seating': 'no', 'addr:street': 'Davie Street', 'addr:postcode': 'V6E 1M5', 'addr:city': 'Vancouver'}"
67,827,49.1037213,-122.7281926,2015-08-20T19:21:25.000-07:00,restaurant,Ricky's,"{'addr:housenumber': '17830', 'addr:street': '56 Avenue'}"
68,832,49.1709535,-123.1824399,2017-06-02T15:25:46.000-07:00,restaurant,Pizza Hut,"{'cuisine': 'pizza', 'name:en': 'Pizza Hut'}"
69,850,49.2838437,-123.1053674,2019-12-22T02:47:27.000-08:00,restaurant,The Old Spaghetti Factory,"{'diet:vegetarian': 'yes', 'addr:housenumber': '53', 'website': 'http://www.oldspaghettifactory.ca/locations/gastown', 'haunted': 'yes', 'cuisine': 'italian', 'name:en': 'The Old Spaghetti Factory', 'addr:street': 'Water Street'}"
70,867,49.2540725,-123.2359295,2019-04-29T21:29:21.000-07:00,restaurant,Virtuous Pie,{'cuisine': 'pizza'}
71,890,49.1123933,-122.6772604,2017-01-10T02:54:47.000-08:00,restaurant,Wings,{'cuisine': 'wings'}
72,917,49.2829671,-123.1105765,2018-10-26T20:30:24.000-07:00,restaurant,La Taqueria,"{'addr:housenumber': '322', 'website': 'http://www.lataqueria.ca', 'phone': '+1-604-568-4406', 'smoking': 'no', 'opening_hours': 'Mo-Th 11:00-21:00; Fr-Sa 11:00-02:00; Su 12:00-18:00', 'cuisine': 'mexican', 'addr:street': 'West Hastings Street', 'addr:postcode': 'V6B 1K6', 'takeaway': 'yes'}"
73,931,49.0326388,-122.801449,2017-06-10T12:33:20.000-07:00,restaurant,White Spot,{'cuisine': 'regional'}
74,932,49.2804382,-123.1181035,2019-10-26T22:49:09.000-07:00,restaurant,Tractor,"{'addr:housenumber': '547', 'website': 'https://tractorfoods.com/', 'internet_access': 'wlan', 'opening_hours': 'Mo-Fr 07:00-22:00; Sa,Su 08:00-22:00', 'description': 'Everyday healthy food', 'cuisine': 'sandwich', 'addr:street': 'Robson Street', 'payment:debit_cards': 'yes', 'email': 'info@tractorfoods.com', 'addr:city': 'Vancouver'}"
75,958,49.3122034,-123.0789593,2017-06-09T09:05:40.000-07:00,restaurant,Buddha-full,"{'name:fr': 'Buddha-full', 'addr:street': 'West 1st Street'}"
76,963,49.2786259,-123.1160142,2019-09-18T23:00:49.000-07:00,restaurant,Original Joe's,"{'website': 'https://www.originaljoes.ca/home/robson?setCookie=1', 'diet:gluten_free': 'yes', 'cuisine': 'burger', 'addr:postcode': 'V6B 6A1', 'addr:city': 'Vancouver', 'diet:vegetarian': 'yes', 'addr:housenumber': '298', 'bar': 'yes', 'diet:meat': 'yes', 'phone': '+1-778-379-8410', 'opening_hours': '09:00-00:00', 'outdoor_seating': 'yes', 'addr:street': 'Robson Street'}"
77,976,49.2575621,-123.1148455,2019-09-24T12:07:45.000-07:00,restaurant,Vij's,{'website': 'https://www.vijs.ca/'}
78,987,49.285769,-123.1247049,2019-09-13T13:56:49.000-07:00,restaurant,Neptune Chinese Kitchen,"{'cuisine': 'chinese', 'addr:housenumber': '1136', 'addr:street': 'Alberni Street', 'source': 'survey', 'addr:city': 'Vancouver'}"
79,997,49.2627174,-123.1000189,2020-01-20T20:26:25.000-08:00,restaurant,Freshii,"{'brand:wikidata': 'Q5503051', 'addr:housenumber': '270', 'brand:wikipedia': 'en:Freshii', 'cuisine': 'salad', 'addr:street': 'East Broadway', 'brand': 'Freshii'}"
80,999,49.0904674,-123.0790855,2017-10-21T21:55:45.000-07:00,restaurant,Ricky's,"{'addr:housenumber': '5239', 'addr:street': 'Ladner Trunk Road'}"
81,1001,49.3210825,-123.0956321,2019-09-23T15:35:32.000-07:00,restaurant,Cora,"{'brand:wikidata': 'Q2996960', 'addr:housenumber': '801', 'phone': '+1-604-990-0051', 'brand:wikipedia': 'en:Cora (restaurant)', 'cuisine': 'breakfast', 'addr:street': 'Marine Drive', 'addr:postcode': 'V7P 3K6', 'brand': 'Cora', 'addr:city': 'North Vancouver'}"
82,1013,49.1637059,-122.6604812,2020-02-11T02:31:22.000-08:00,restaurant,Denny's,"{'brand:wikidata': 'Q1189695', 'addr:housenumber': '8855', 'brand:wikipedia': ""en:Denny's"", 'cuisine': 'american', 'addr:street': '202 Street', 'brand': ""Denny's""}"
83,1022,49.2681152,-123.1595834,2019-03-23T19:23:33.000-07:00,restaurant,Peaceful Restaurant,"{'cuisine': 'chinese', 'addr:housenumber': '2394', 'addr:street': 'West 4th Avenue'}"
84,1024,49.2681518,-123.1463206,2019-08-29T18:31:06.000-07:00,restaurant,Pizza Hut,"{'brand:wikidata': 'Q191615', 'addr:housenumber': '1829', 'brand:wikipedia': 'en:Pizza Hut', 'cuisine': 'pizza', 'addr:street': 'West 4th Avenue', 'brand': 'Pizza Hut'}"
85,1026,49.2680714,-123.1568116,2016-02-07T00:30:16.000-08:00,restaurant,Burgoo,"{'addr:housenumber': '2272', 'addr:street': 'West 4th Avenue'}"
86,1031,49.268201,-123.1486188,2019-08-29T18:31:06.000-07:00,restaurant,Freshii,"{'brand:wikidata': 'Q5503051', 'addr:housenumber': '1927', 'brand:wikipedia': 'en:Freshii', 'cuisine': 'salad', 'addr:street': 'West 4th Avenue', 'brand': 'Freshii'}"
87,1033,49.2681756,-123.1481478,2016-02-07T23:52:52.000-08:00,restaurant,Tractor,"{'addr:housenumber': '1903', 'addr:street': 'West 4th Avenue'}"
88,1039,49.2664116,-123.0140254,2012-03-10T06:54:33.000-08:00,restaurant,White Spot,{}
89,1067,49.189306,-122.8026622,2019-10-29T18:02:14.000-07:00,restaurant,Freshii,"{'brand:wikidata': 'Q5503051', 'cuisine': 'salad', 'brand': 'Freshii', 'brand:wikipedia': 'en:Freshii'}"
90,1077,49.0906097,-123.0802207,2020-04-17T15:59:57.000-07:00,restaurant,Chopped Leaf,"{'addr:province': 'BC', 'addr:housenumber': '5209', 'addr:country': 'CA', 'addr:street': 'Ladner Trunk Road', 'addr:postcode': 'V4K 1W4', 'addr:city': 'Delta'}"
91,1080,49.0583832,-122.3780427,2019-04-27T20:37:06.000-07:00,restaurant,Famoso Neapolitan Pizzeria,"{'cuisine': 'pizza', 'website': 'http://www.famoso.ca/locations/bc_abbotsford.php', 'level': '2', 'addr:unit': 'J105', 'layer': '2'}"
92,1082,49.0584965,-122.3808116,2019-02-20T02:38:28.000-08:00,restaurant,Milestones,"{'opening_hours:signed': 'no', 'website': 'https://www.milestonesrestaurants.com/location_region.php?province=BC&s=1&city_drop=Abbotsford', 'addr:unit': 'E110', 'layer': '2'}"
93,1083,49.0582246,-122.3808805,2019-04-01T17:53:58.000-07:00,restaurant,The Canadian Brewhouse & Grill,"{'website': 'https://thecanadianbrewhouse.com/', 'old_name': ""Ceili's Modern Irish Pub"", 'phone': '+1-604-625-5433', 'opening_hours': 'Mo-Fr 11:00-00:00; Sa-Su 10:00-00:00', 'addr:unit': 'E125', 'layer': '2'}"
94,1090,49.278102,-122.9099445,2019-10-07T05:01:09.000-07:00,restaurant,The Chopped Leaf,{'addr:unit': '106'}
95,1091,49.2781344,-122.9101527,2019-10-07T05:01:09.000-07:00,restaurant,Togo Sushi,"{'cuisine': 'sushi', 'addr:unit': '107'}"
96,1095,49.2827611,-123.1096481,2019-03-22T02:53:41.000-07:00,restaurant,Nuba,"{'toilets:wheelchair': 'yes', 'diet:vegetarian': 'yes', 'wheelchair': 'no', 'addr:housenumber': '207', 'website': 'https://www.nuba.ca/', 'phone': '+1-604-688-1655', 'opening_hours': 'Mo-Th 11:30-21:00; Fr 11:30-22:00; Sa 11:00-22:00; Su 11:00-21:00', 'cuisine': 'lebanese', 'addr:street': 'West Hastings Street', 'takeaway': 'yes'}"
97,1106,49.0562149,-122.380711,2020-01-19T23:57:49.000-08:00,restaurant,Denny's,"{'brand:wikidata': 'Q1189695', 'addr:housenumber': '3010', 'website': 'https://www.dennys.ca/', 'brand:wikipedia': ""en:Denny's"", 'cuisine': 'american', 'addr:street': 'Mount Lehman Road', 'brand': ""Denny's"", 'operator': 'Northland Properties'}"
98,1108,49.2492559,-122.8670655,2012-10-06T00:58:04.000-07:00,restaurant,Pizza Hut,"{'cuisine': 'pizza', 'operator': 'Yum! Brands'}"
99,1114,49.285504,-123.118815,2020-03-11T04:43:09.000-07:00,restaurant,Cactus Club Cafe,"{'addr:province': 'BC', 'addr:housenumber': '588', 'website': 'https://www.cactusclubcafe.com/', 'phone': '+1-604-682-0933', 'cuisine': 'Global', 'addr:street': 'Burrard Street', 'addr:city': 'Vancouver'}"
100,1132,49.2874308,-123.1149042,2013-06-10T14:56:49.000-07:00,restaurant,Hapa Izakaya,"{'cuisine': 'japanese', 'addr:housenumber': '909', 'addr:street': 'West Cordova Street', 'source': 'survey'}"
101,1136,49.2886227,-123.1400296,2019-09-02T22:08:26.000-07:00,restaurant,Shizen Ya,"{'addr:housenumber': '1059', 'website': 'http://shizenya.ca/', 'phone': '+1-778-379-0159', 'opening_hours': 'Mo-Th,Su 11:30-21:00; Fr,Sa 11:30-22:00', 'cuisine': 'sushi;japanese', 'addr:street': 'Denman Street', 'addr:postcode': 'V6G 2M7', 'addr:city': 'Vancouver', 'capacity': '36'}"
102,1143,49.1326737,-122.3388665,2019-02-18T15:10:14.000-08:00,restaurant,Fatburger,"{'website': 'https://www.fatburgercanada.com/', 'phone': '+1-604-410-0010', 'opening_hours': '10:00-21:00', 'cuisine': 'burger', 'outdoor_seating': 'yes', 'addr:unit': 'C120'}"
103,1144,49.132705,-122.3390044,2019-09-22T22:48:18.000-07:00,restaurant,Pizza Hut,"{'brand:wikidata': 'Q191615', 'website': 'https://www.pizzahut.ca', 'brand:wikipedia': 'en:Pizza Hut', 'cuisine': 'pizza', 'brand': 'Pizza Hut', 'addr:unit': 'C110'}"
104,1145,49.2339814,-122.8626888,2017-02-13T21:46:03.000-08:00,restaurant,Ricky's,"{'addr:housenumber': '1090', 'addr:street': 'Lougheed Highway'}"
105,1147,49.254194,-123.2360217,2019-04-29T21:29:21.000-07:00,restaurant,Neptune Chinese Kitchen,{'cuisine': 'chinese'}
106,1149,49.288292,-123.14005,2019-04-20T08:44:06.000-07:00,restaurant,Banana Leaf,"{'addr:housenumber': '1096', 'website': 'https://www.bananaleaf-vancouver.com/', 'phone': '+1-604-683-3333', 'smoking': 'no', 'opening_hours': 'Mo-Sa 11:30-22:00; Su 11:30-21:45', 'cuisine': 'asian', 'addr:street': 'Denman Street'}"
107,1151,49.2251548,-123.1018741,2019-12-20T03:56:16.000-08:00,restaurant,Freshii,"{'brand:wikidata': 'Q5503051', 'addr:province': 'BC', 'addr:housenumber': '6541', 'brand:wikipedia': 'en:Freshii', 'cuisine': 'salad', 'addr:street': 'Main Street', 'brand': 'Freshii', 'addr:city': 'Vancouver'}"
108,1175,49.2778406,-122.9118791,2019-11-14T08:54:00.000-08:00,restaurant,Donair Town,"{'addr:housenumber': '8923', 'addr:street': 'Cornerstone Mews'}"
109,1184,49.1780886,-123.1274542,2018-02-09T04:59:28.000-08:00,restaurant,Deer Garden Signatures,"{'opening_hours': 'Mo-Su 11:00-23:00', 'cuisine': 'chinese', 'phone': '+1-604-278-9229'}"
110,1194,49.2630798,-123.1160636,2018-08-30T03:12:10.000-07:00,restaurant,Peaceful Restaurant,"{'cuisine': 'chinese', 'addr:housenumber': '#110 532', 'addr:street': 'West Broadway', 'phone': '+1-604-879-9878'}"
111,1206,49.26428,-123.1722925,2019-10-09T05:27:10.000-07:00,restaurant,Banana Leaf,"{'cuisine': 'malaysian', 'addr:housenumber': '3005', 'website': 'https://www.bananaleaf-vancouver.com/', 'addr:street': 'West Broadway', 'phone': '+1-604-734-3005'}"
112,1207,49.2750892,-123.1227583,2019-10-27T17:08:25.000-07:00,restaurant,Cactus Club Cafe,"{'diet:gluten_free': 'yes', 'air_conditioning': 'yes', 'takeaway': 'yes', 'addr:city': 'Vancouver', 'diet:vegetarian': 'yes', 'addr:housenumber': '357', 'bar': 'yes', 'phone': '+1-604-685-8070', 'smoking': 'no', 'opening_hours': 'Su-We 11:30-00:00; Th-Sa 11:30-01:00', 'reservation': 'yes', 'outdoor_seating': 'yes', 'addr:street': 'Davie Street'}"
113,1228,49.2190996,-122.9671782,2015-08-17T17:05:24.000-07:00,restaurant,Sushi Garden,{'cuisine': 'sushi'}
114,1232,49.197361,-123.178806,2011-04-27T23:00:51.000-07:00,restaurant,Milestones,{}
115,1239,49.2144651,-122.9881069,2018-08-09T02:26:59.000-07:00,restaurant,Asa Sushi,"{'cuisine': 'japanese', 'addr:housenumber': '7608'}"
116,1243,49.2620586,-123.0333402,2020-06-17T22:37:20.000-07:00,restaurant,Dae-Ji Cutlet House,"{'addr:province': 'BC', 'addr:housenumber': '3307', 'outdoor_seating': 'no', 'addr:street': 'East Broadway', 'addr:postcode': 'V5M 3T4', 'addr:city': 'Vancouver'}"
117,1261,49.2557109,-123.1153628,2019-09-13T13:57:04.000-07:00,restaurant,Thai Away Home,"{'addr:housenumber': '3315', 'addr:street': 'Cambie Street', 'addr:city': 'Vancouver'}"
118,1266,49.2634282,-123.1170237,2019-09-13T13:57:04.000-07:00,restaurant,Freshii,"{'brand:wikidata': 'Q5503051', 'addr:housenumber': '561', 'brand:wikipedia': 'en:Freshii', 'cuisine': 'salad', 'addr:street': 'West Broadway', 'brand': 'Freshii', 'addr:city': 'Vancouver'}"
119,1269,49.2544914,-123.1012783,2019-10-29T21:16:32.000-07:00,restaurant,Pizza Hut,"{'brand:wikidata': 'Q191615', 'addr:housenumber': '3425', 'brand:wikipedia': 'en:Pizza Hut', 'cuisine': 'pizza', 'addr:street': 'Main Street', 'brand': 'Pizza Hut', 'addr:city': 'Vancouver'}"
120,1285,49.280319,-123.131586,2018-02-10T15:24:44.000-08:00,restaurant,Thai Basil,"{'addr:housenumber': '1125', 'website': 'http://www.thaibasilvancouver.ca', 'phone': '+1-604-677-6767', 'opening_hours': 'Mo-Th 11:30-21:30; Fr-Sa 11:30-22:00; Su 12:00-21:30', 'cuisine': 'thai', 'addr:street': 'Thurlow Street'}"
121,1286,49.2878101,-123.1412192,2019-09-13T13:56:49.000-07:00,restaurant,Donair Spot,"{'addr:housenumber': '1179', 'addr:street': 'Denman Street', 'takeaway': 'yes', 'addr:city': 'Vancouver'}"
122,1290,49.1193301,-122.8235877,2019-12-01T06:33:16.000-08:00,restaurant,Round Table Pizza,"{'cuisine': 'pizza', 'website': 'http://roundtablepizzasurrey.ca', 'phone': '(604)-502-0144'}"
123,1292,49.3264332,-123.1392875,2020-05-29T00:40:33.000-07:00,restaurant,White Spot,"{'brand:wikidata': 'Q7995414', 'cuisine': 'burger', 'brand': 'White Spot', 'brand:wikipedia': 'en:White Spot'}"
124,1294,49.0223678,-122.8084716,2020-01-03T15:51:15.000-08:00,restaurant,The Boathouse Restaurant,"{'addr:housenumber': '14935', 'website': 'https://boathouserestaurants.ca/locations/#WHITE%20ROCK', 'level': '1', 'cuisine': 'seafood', 'outdoor_seating': 'yes', 'addr:street': 'Marine Drive', 'url': 'https://boathouserestaurants.ca'}"
125,1297,49.1724288,-123.1361124,2019-10-27T17:08:25.000-07:00,restaurant,Ebisu,"{'addr:housenumber': '8111', 'website': 'http://www.ebisu.ca/richmond/', 'phone': '+1-604-270-4846', 'opening_hours': 'Su-Th 11:30-14:30,16:30-22:00; Fr-Sa 11:30-23:00', 'cuisine': 'japanese', 'addr:street': 'Ackroyd Road', 'addr:postcode': 'V6X 3J9', 'addr:unit': '100', 'addr:city': 'Richmond'}"
126,1304,49.2179441,-122.6483993,2019-11-11T00:58:02.000-08:00,restaurant,Pizza Hut,"{'brand:wikidata': 'Q191615', 'cuisine': 'pizza', 'brand': 'Pizza Hut', 'brand:wikipedia': 'en:Pizza Hut'}"
127,1306,49.2799857,-123.1303512,2019-04-15T21:26:39.000-07:00,restaurant,Italian Tomato,{'cuisine': 'italian'}
128,1309,49.2329098,-123.0331932,2020-02-08T19:37:29.000-08:00,restaurant,Bubble World,"{'addr:housenumber': '2-3377', 'addr:street': 'Kingsway', 'phone': '+1 604-451-7658', 'addr:postcode': 'V5R 5K6', 'addr:city': 'Vancouver'}"
129,1316,49.2846234,-123.125267,2019-11-23T23:10:21.000-08:00,restaurant,Red Robin,"{'brand:wikidata': 'Q7304886', 'official_name': 'Red Robin Gourmet Burgers and Brews', 'website': 'http://www.redrobinscanada.com', 'air_conditioning': 'yes', 'level': '1', 'brand:wikipedia': 'en:Red Robin', 'cuisine': 'burger', 'addr:city': 'Vancouver', 'addr:housenumber': '803', 'bar': 'yes', 'phone': '+1-604-662-8288', 'smoking': 'no', 'opening_hours': 'Mo-Th,Su 11:00-23:00; Sa,Su 11:00-00:00', 'reservation': 'yes', 'outdoor_seating': 'yes', 'addr:street': 'Thurlow st', 'brand': 'Red Robin'}"
130,1334,49.1917274,-123.0808548,2019-05-28T17:03:52.000-07:00,restaurant,White Spot,"{'brand:wikidata': 'Q7995414', 'diet:vegetarian': 'yes', 'addr:housenumber': '120-12800', 'phone': '+1-604-270-0375', 'brand:wikipedia': 'en:White Spot', 'cuisine': 'burger', 'addr:street': 'Bridgeport Road', 'addr:postcode': 'V6V 0B4', 'brand': 'White Spot', 'addr:city': 'Richmond'}"
131,1354,49.2743433,-123.1232695,2012-01-26T07:21:26.000-08:00,restaurant,Rodney's Oyster House,"{'cuisine': 'seafood', 'addr:housenumber': '1228', 'website': 'www.rodneysoysterhouse.com', 'addr:street': 'Hamilton Street', 'addr:postcode': 'V6B 6L2'}"
132,1360,49.2785408,-123.1157423,2019-12-29T20:55:27.000-08:00,restaurant,Marutama Ra-men,"{'addr:housenumber': '270', 'website': 'https://marutama.ca', 'payment:credit_cards': 'yes', 'opening_hours': 'Mo-Su 11:00-22:00', 'payment:cash': 'no', 'cuisine': 'ramen', 'addr:street': 'Robson St', 'payment:debit_cards': 'yes', 'addr:city': 'Vancouver'}"
133,1361,49.26948,-123.1072592,2019-06-20T03:39:37.000-07:00,restaurant,Bao Down,{'cuisine': 'thai'}
134,1362,49.26955,-123.1091434,2019-06-20T03:39:37.000-07:00,restaurant,Nook,{'cuisine': 'italian'}
135,1371,49.1857231,-122.8000278,2019-02-24T04:50:22.000-08:00,restaurant,Bubble Waffle Cafe,"{'cuisine': 'noodles', 'level': '0', 'amenity:cafe': 'yes'}"
136,1373,49.2778963,-122.7936486,2019-04-07T19:33:26.000-07:00,restaurant,The Keg,"{'brand:wikidata': 'Q7744066', 'cuisine': 'steak_house', 'brand': 'The Keg', 'brand:wikipedia': 'en:The Keg'}"
137,1374,49.2625064,-123.1012808,2020-06-15T16:20:22.000-07:00,restaurant,La Taqueria Pinche Taco Shop,"{'addr:housenumber': '2521', 'phone': '+1-604-227-5077', 'opening_hours': 'Su 12:00-21:00; Fr,Sa 11:00-22:30; Mo-Th 11:00-21:00', 'cuisine': 'mexican', 'addr:street': 'Main Street', 'addr:city': 'Vancouver'}"
138,1382,49.0589538,-122.4922744,2020-01-15T21:07:58.000-08:00,restaurant,Pizza Hut,"{'brand:wikidata': 'Q191615', 'cuisine': 'pizza', 'brand': 'Pizza Hut', 'brand:wikipedia': 'en:Pizza Hut'}"
139,1383,49.0580042,-122.4919543,2019-09-25T14:48:42.000-07:00,restaurant,White Spot,"{'brand:wikidata': 'Q7995414', 'cuisine': 'burger', 'brand': 'White Spot', 'brand:wikipedia': 'en:White Spot'}"
140,1394,49.3251311,-123.1242373,2019-05-02T13:27:50.000-07:00,restaurant,Pho Japolo,{}
141,1396,49.2106257,-123.0923821,2018-12-14T07:50:07.000-08:00,restaurant,Neptune Chinese Kitchen,"{'delivery': 'yes', 'cuisine': 'chinese', 'addr:housenumber': '620', 'addr:street': 'Southeast Marine Drive'}"
142,1397,49.2129995,-122.9211009,2019-07-02T01:10:30.000-07:00,restaurant,White Spot,"{'brand:wikidata': 'Q7995414', 'internet_access': 'wlan', 'phone': '+1-604-522-4800', 'level': '1', 'brand:wikipedia': 'en:White Spot', 'opening_hours': 'Su-Th 08:00-22:00; Fr-Sa 08:00-22:30', 'cuisine': 'burger', 'addr:postcode': 'V3L 3C2', 'brand': 'White Spot'}"
143,1408,49.2850132,-123.1179138,2017-11-17T01:01:33.000-08:00,restaurant,La Taqueria,"{'cuisine': 'mexican', 'addr:housenumber': '586', 'addr:street': 'Hornby Street'}"
144,1410,49.3125664,-123.0822132,2019-09-13T13:57:03.000-07:00,restaurant,Boston Pizza,"{'brand:wikidata': 'Q894578', 'addr:housenumber': '88', 'phone': '+1-778-340-1514', 'brand:wikipedia': 'en:Boston Pizza', 'cuisine': 'pizza', 'addr:street': 'Chesterfield Avenue', 'brand': 'Boston Pizza', 'addr:city': 'North Vancouver City'}"
145,1411,49.3124327,-123.08221,2019-09-13T13:57:03.000-07:00,restaurant,Freshii,"{'addr:housenumber': '180', 'addr:street': 'West Esplanade Street', 'phone': '+1-778-729-0838', 'addr:unit': '2', 'addr:city': 'North Vancouver City'}"
146,1424,49.1190026,-122.7321747,2019-11-24T07:59:56.000-08:00,restaurant,Umami Sushi,{'cuisine': 'sushi'}
147,1426,49.2872474,-123.1189254,2019-10-09T17:48:23.000-07:00,restaurant,Meat & Bread,"{'addr:housenumber': '1033', 'website': 'http://meatandbread.ca', 'opening_hours': 'Mo-Fr 11:00-16:00', 'cuisine': 'sandwich', 'addr:street': 'West Pender Street', 'addr:postcode': 'V6E 2M6', 'addr:city': 'Vancouver'}"
148,1428,49.2232913,-122.942881,2020-02-04T05:40:35.000-08:00,restaurant,Cattle Cafe,"{'addr:province': 'BC', 'addr:housenumber': '7625', 'website': 'http://www.cattlecafe.ca/', 'phone': '+1-604-553 8111', 'opening_hours': 'Mo-Th 11:30-23:00; Fr 11:30-23:30; Sa 11:00-23:30; Su 11:00-23:00', 'cuisine': 'chinese', 'addr:street': 'Edmonds Street', 'addr:city': 'Burnaby'}"
149,1434,49.1326485,-123.0915094,2020-01-12T02:50:27.000-08:00,restaurant,Freshii,"{'brand:wikidata': 'Q5503051', 'addr:province': 'BC', 'addr:housenumber': '11020', 'brand:wikipedia': 'en:Freshii', 'cuisine': 'salad', 'addr:street': 'No. 5 Road', 'brand': 'Freshii', 'addr:unit': '103', 'addr:city': 'Richmond'}"
150,1435,49.2041008,-122.9092522,2020-01-12T05:09:12.000-08:00,restaurant,Pizzeria Ludica,"{'addr:housenumber': '601', 'website': 'http://www.ludica.ca/', 'phone': '+1-604-553-2232', 'opening_hours': 'Mo-Th 17:00-22:30; Fr 14:30-23:00; Sa 12:00-23:00; Su 12:00-22:00', 'cuisine': 'pizza', 'addr:street': 'Carnarvon Street'}"
151,1437,49.2800699,-122.9697686,2019-07-07T04:11:10.000-07:00,restaurant,White Spot,"{'brand:wikidata': 'Q7995414', 'addr:housenumber': '6500', 'brand:wikipedia': 'en:White Spot', 'cuisine': 'burger', 'addr:street': 'Hastings Street', 'brand': 'White Spot'}"
152,1442,49.1661003,-122.664152,2017-02-09T01:36:32.000-08:00,restaurant,The Chopped Leaf,"{'level': '0', 'takeaway': 'yes'}"
153,1444,49.2672796,-123.1131132,2013-11-02T18:25:27.000-07:00,restaurant,De Dutch,{}
154,1448,49.2269711,-123.1287459,2019-07-16T20:38:16.000-07:00,restaurant,Phở Hòa,"{'brand:wikidata': 'Q55629932', 'name:vi': 'Phở Hòa', 'alt_name': 'Phở Hoà', 'website': 'https://phohoa.com/', 'alt_name:en': 'Pho Hoa', 'brand:wikipedia': 'en:Phở Hòa', 'cuisine': 'vietnamese;noodle', 'alt_name:vi': 'Phở Hoà', 'brand': 'Phở Hòa'}"
155,1459,49.1060882,-122.6560645,2019-11-18T00:17:33.000-08:00,restaurant,The Buffet,{'cuisine': 'american'}
156,1478,49.2803076,-123.1179254,2020-06-11T20:34:04.000-07:00,restaurant,Jinya Ramen Bar,"{'brand:wikidata': 'Q16997755', 'website': 'https://jinya-ramenbar.com/locations/detail/vancouver-downtown', 'brand:wikipedia': 'en:Jinya Ramen Bar', 'cuisine': 'ramen', 'addr:postcode': 'V6B 2B7', 'addr:city': 'Vancouver', 'addr:housenumber': '541', 'phone': '+1-604-699-9377', 'smoking': 'no', 'opening_hours': 'Su-Th 11:00-23:00; Fr-Sa 11:00-00:00', 'name:en': 'Jinya Ramen Bar', 'outdoor_seating': 'yes', 'addr:street': 'Robson Street', 'payment:debit_cards': 'yes', 'brand': 'Jinya Ramen Bar'}"
157,1486,49.0459218,-122.7821538,2019-09-13T13:56:49.000-07:00,restaurant,White Spot,"{'brand:wikidata': 'Q7995414', 'addr:housenumber': '15877', 'brand:wikipedia': 'en:White Spot', 'cuisine': 'burger', 'addr:street': 'Croydon Drive', 'brand': 'White Spot', 'addr:city': 'Surrey'}"
158,1487,49.1905117,-122.9504389,2019-09-23T20:20:53.000-07:00,restaurant,Nando's,"{'brand:wikidata': 'Q3472954', 'brand:wikipedia': ""en:Nando's"", 'cuisine': 'chicken;portuguese', 'outdoor_seating': 'yes', 'takeaway': 'yes', 'brand': ""Nando's""}"
159,1489,49.0244881,-123.0691535,2019-09-02T22:08:26.000-07:00,restaurant,White Spot,"{'delivery': 'no', 'addr:housenumber': '1199', 'website': 'https://www.whitespot.ca/location/tsawwassen', 'phone': '+1-604-943-5715', 'opening_hours': 'Mo-Su 06:30-22:00', 'cuisine': 'american;international', 'outdoor_seating': 'no', 'addr:street': '56 Street', 'addr:postcode': 'V4L 2A6', 'takeaway': 'yes', 'addr:city': 'Delta'}"
160,1510,49.1736004,-123.1475891,2020-04-17T20:36:04.000-07:00,restaurant,Freshii,"{'brand:wikidata': 'Q5503051', 'brand:wikipedia': 'en:Freshii', 'cuisine': 'salad', 'addr:postcode': 'V7C 4N3', 'takeaway': 'yes', 'addr:unit': '110', 'addr:city': 'Richmond', 'addr:housenumber': '5668', 'smoking': 'no', 'opening_hours': 'Mo-Fr 09:00-20:00, Sa-Su 10:00-19:00', 'addr:street': 'Hollybridge Way', 'brand': 'Freshii'}"
161,1521,49.2761557,-123.1281645,2019-09-18T23:00:49.000-07:00,restaurant,White Spot,"{'brand:wikidata': 'Q7995414', 'addr:housenumber': '712', 'brand:wikipedia': 'en:White Spot', 'opening_hours': 'Mo-Th,Su 07:00-23:00; Fr,Sa 07:00-00:00', 'cuisine': 'burger', 'addr:street': 'Drake Street', 'brand': 'White Spot', 'addr:city': 'Vancouver'}"
162,1522,49.2722881,-123.1548112,2013-06-04T05:28:54.000-07:00,restaurant,Hapa Izakaya,"{'cuisine': 'sushi', 'source': 'survey'}"
163,1532,49.2529024,-123.0822591,2018-02-10T16:17:35.000-08:00,restaurant,Green Lemongrass,"{'cuisine': 'vietnamese', 'addr:housenumber': '1086', 'addr:street': 'Kingsway', 'phone': '+1-604-875-6638'}"
164,1533,49.2778449,-123.1276301,2020-01-18T19:47:45.000-08:00,restaurant,Nando's,"{'brand:wikidata': 'Q3472954', 'addr:housenumber': '828', 'brand:wikipedia': ""en:Nando's"", 'opening_hours': 'Fr,Sa 11:00-24:00, Su-Th 11:00-23:00', 'cuisine': 'chicken;portuguese', 'addr:street': 'Davie Street', 'brand': ""Nando's""}"
165,1544,49.2792951,-123.0978928,2019-08-01T23:23:26.000-07:00,restaurant,Jang Mo Jib Korean Restaurant,"{'addr:housenumber': '268', 'website': 'http://www.hons.ca/', 'addr:street': 'Keefer Street'}"
166,1548,49.220176,-122.6629221,2014-01-26T08:56:14.000-08:00,restaurant,Panago Pizza,{'cuisine': 'pizza'}
167,1549,49.2201339,-122.6632333,2014-01-26T08:56:14.000-08:00,restaurant,Pho Tau Bay,{'cuisine': 'vietnamese'}
168,1551,49.3116539,-123.0803449,2019-09-13T13:57:05.000-07:00,restaurant,Freshslice Pizza,"{'addr:housenumber': '132', 'opening_hours': 'Mo-Sa 10:00-22:00; Su 11:00-22:00', 'cuisine': 'pizza', 'addr:street': 'West Esplanade Street', 'addr:postcode': 'V7M 1A2', 'takeaway': 'yes', 'addr:unit': '120', 'addr:city': 'North Vancouver'}"
169,1561,49.2810313,-123.0585459,2019-09-13T13:57:04.000-07:00,restaurant,X-Site Grill & Bistro,"{'addr:housenumber': '2270', 'addr:street': 'East Hastings Street', 'addr:city': 'Vancouver'}"
170,1568,49.2047372,-123.1308338,2019-09-13T13:57:04.000-07:00,restaurant,White Spot,"{'brand:wikidata': 'Q7995414', 'addr:housenumber': '1041', 'brand:wikipedia': 'en:White Spot', 'cuisine': 'burger', 'addr:street': 'Southwest Marine Drive', 'brand': 'White Spot', 'addr:city': 'Vancouver'}"
171,1569,49.204456,-123.1393553,2019-09-13T13:57:04.000-07:00,restaurant,Thai Son Restaurant,"{'addr:housenumber': '1450', 'addr:street': 'Southwest Marine Drive', 'addr:city': 'Vancouver'}"
172,1574,49.2121488,-123.1409022,2019-09-13T13:57:04.000-07:00,restaurant,Pizza Hut,"{'brand:wikidata': 'Q191615', 'addr:housenumber': '8155', 'brand:wikipedia': 'en:Pizza Hut', 'cuisine': 'pizza', 'addr:street': 'Granville Street', 'brand': 'Pizza Hut', 'addr:city': 'Vancouver'}"
173,1576,49.2116748,-123.1401802,2019-09-13T13:57:04.000-07:00,restaurant,Sushi King House,"{'addr:housenumber': '8176', 'addr:street': 'Granville Street', 'addr:city': 'Vancouver'}"
174,1583,49.1881812,-123.1116797,2019-09-13T13:57:04.000-07:00,restaurant,Denny's,"{'addr:housenumber': '10211', 'addr:street': 'Saint Edwards Drive', 'addr:city': 'Richmond'}"
175,1584,49.1916688,-123.1084828,2019-09-13T13:57:04.000-07:00,restaurant,Neptune Express,"{'addr:housenumber': '140-3031', 'addr:street': 'Beckman Place', 'addr:city': 'Richmond'}"
176,1588,49.1790017,-123.1336545,2019-09-13T13:57:04.000-07:00,restaurant,Happy Tree House BBQ,"{'addr:housenumber': '105-8171', 'name:en': 'Happy Tree House BBQ', 'addr:street': 'Alexandra Road', 'addr:city': 'Richmond', 'name:zh': '木屋炭烤'}"
177,1590,49.179953,-123.1347099,2019-09-13T13:57:04.000-07:00,restaurant,Beijiang Restaurant,"{'addr:housenumber': '8111', 'addr:street': 'Leslie Road', 'addr:city': 'Richmond'}"
178,1591,49.1814107,-123.1341625,2019-09-13T13:57:04.000-07:00,restaurant,Kung Fu Noodle,"{'addr:housenumber': '4203-4231', 'addr:street': 'Hazelbridge Way', 'addr:city': 'Richmond'}"
179,1594,49.2778577,-122.9119847,2020-01-18T09:03:22.000-08:00,restaurant,Pizza Hut,"{'brand:wikidata': 'Q191615', 'addr:housenumber': '8917', 'brand:wikipedia': 'en:Pizza Hut', 'cuisine': 'pizza', 'addr:street': 'Cornerstone Mews', 'brand': 'Pizza Hut'}"
180,1603,49.1026873,-122.6456899,2020-02-03T00:51:41.000-08:00,restaurant,Freshii,"{'brand:wikidata': 'Q5503051', 'addr:province': 'BC', 'addr:housenumber': '20821', 'brand:wikipedia': 'en:Freshii', 'cuisine': 'salad', 'addr:street': 'Fraser Highway', 'brand': 'Freshii', 'addr:unit': '37', 'addr:city': 'Langley'}"
181,1608,49.2715608,-123.1548474,2020-02-03T01:29:45.000-08:00,restaurant,Basil Pasta Bar,"{'addr:province': 'BC', 'cuisine': 'italian', 'addr:housenumber': '1602', 'addr:street': 'Yew Street', 'addr:city': 'Vancouver'}"
182,1611,49.1129138,-122.6681084,2018-10-29T03:49:08.000-07:00,restaurant,Cactus Club Cafe,"{'cuisine': 'international', 'addr:housenumber': '6070', 'addr:street': '200 Street'}"
183,1613,49.1129178,-122.6625851,2019-06-07T13:28:04.000-07:00,restaurant,Nando's,"{'brand:wikidata': 'Q3472954', 'addr:housenumber': '20190', 'website': 'https://www.nandos.ca/eat/restaurants/langley', 'brand:wikipedia': ""en:Nando's"", 'cuisine': 'chicken;portuguese', 'addr:street': 'Langley Bypass', 'brand': ""Nando's"", 'addr:unit': 'G030'}"
184,1616,49.1130445,-122.665058,2019-10-29T07:33:16.000-07:00,restaurant,Montana's,"{'brand:wikidata': 'Q17022490', 'official_name': ""Montana's BBQ & Bar"", 'addr:housenumber': '20100', 'brand:wikipedia': ""en:Montana's BBQ & Bar"", 'cuisine': 'barbecue', 'addr:street': 'Langley Bypass', 'addr:postcode': 'V3A 9J7', 'brand': ""Montana's"", 'addr:unit': 'D010'}"
185,1617,49.3078523,-123.0409549,2014-01-06T08:00:29.000-08:00,restaurant,White Spot,{'cuisine': 'american'}
186,1618,49.306933,-123.0345561,2019-09-13T13:56:49.000-07:00,restaurant,Freshii,"{'addr:housenumber': '1386', 'addr:street': 'Main Street', 'addr:unit': '7', 'addr:city': 'North Vancouver'}"
187,1623,49.2202683,-122.6496039,2010-09-02T07:16:40.000-07:00,restaurant,The Keg,{}
188,1627,49.2472107,-122.8935137,2016-10-11T01:42:30.000-07:00,restaurant,White Spot,"{'addr:housenumber': '4075', 'addr:street': 'North Road', 'drive_in': 'yes'}"
189,1632,49.1308844,-122.3180976,2019-02-18T01:31:05.000-08:00,restaurant,Little Saigon,"{'website': 'https://www.littlesaigon.ca/', 'phone': '+1-604-820-8746', 'opening_hours': '11:00-21:00', 'description': 'Vietnamese Noodle House', 'cuisine': 'vietnamese', 'addr:unit': '322'}"
190,1634,49.2839422,-123.0998366,2018-07-12T18:51:10.000-07:00,restaurant,Deacon's Corner,"{'addr:housenumber': '101', 'website': 'http://www.deaconscorner.ca/', 'opening_hours': 'Mo-Fr 08:00-21:00; Sa 09:00-21:00; Su 09:00-17:00', 'cuisine': 'sandwich;burger;breakfast', 'outdoor_seating': 'no', 'addr:street': 'Main Street', 'addr:postcode': 'V6A 2S5'}"
191,1635,49.189941,-122.8471754,2019-10-21T00:40:15.000-07:00,restaurant,Phở Hòa,"{'brand:wikidata': 'Q55629932', 'name:vi': 'Phở Hòa', 'alt_name': 'Phở Hoà', 'alt_name:en': 'Pho Hoa', 'brand:wikipedia': 'en:Phở Hòa', 'cuisine': 'vietnamese;noodle', 'alt_name:vi': 'Phở Hoà', 'brand': 'Phở Hòa'}"
192,1636,49.279737,-123.126662,2017-08-18T00:41:37.000-07:00,restaurant,Tokyo Joe's,"{'opening_hours': 'Mo-Fr 10:00-20:30; Sa 11:30-19:00', 'cuisine': 'sushi', 'outdoor_seating': 'yes', 'takeaway': 'yes', 'smoking': 'no'}"
193,1640,49.1194928,-122.6654561,2014-01-12T13:27:31.000-08:00,restaurant,Ricky's All Day Grill,{'cuisine': 'american'}
194,1642,49.285939,-123.1265796,2017-12-31T17:58:32.000-08:00,restaurant,Earl's,"{'addr:housenumber': '1185', 'addr:street': 'Robson Street'}"
195,1647,49.1699631,-122.5776098,2017-02-03T18:28:24.000-08:00,restaurant,The Little Donkey,"{'level': '0', 'cuisine': 'mexican'}"
196,1655,49.1400974,-123.1383267,2018-10-09T20:16:50.000-07:00,restaurant,Freshslice Pizza,"{'delivery': 'yes', 'cuisine': 'pizza', 'outdoor_seating': 'yes', 'takeaway': 'yes'}"
197,1669,49.110595,-122.6768607,2019-03-18T03:18:58.000-07:00,restaurant,Boston Pizza,"{'brand:wikidata': 'Q894578', 'cuisine': 'pizza', 'brand': 'Boston Pizza', 'brand:wikipedia': 'en:Boston Pizza'}"
198,1681,49.2964195,-122.803499,2019-08-15T00:25:19.000-07:00,restaurant,O Sushi,{'cuisine': 'sushi'}
199,1683,49.2790508,-122.8292606,2019-08-15T01:18:40.000-07:00,restaurant,Freshii,"{'brand:wikidata': 'Q5503051', 'cuisine': 'salad', 'brand': 'Freshii', 'brand:wikipedia': 'en:Freshii'}"
200,1684,49.2610518,-123.2482235,2019-12-08T19:52:39.000-08:00,restaurant,Pacific Poke,"{'wheelchair': 'yes', 'delivery': 'no', 'internet_access': 'wlan', 'smoking': 'no', 'cuisine': 'asian', 'name:en': 'Pacific Pokè', 'addr:street': 'Agronomy Road', 'takeaway': 'yes', 'operator': 'UBC Food Services'}"
201,1700,49.1728469,-123.1361738,2019-09-13T13:57:02.000-07:00,restaurant,Neptune Seafood Restaurant,"{'addr:housenumber': '100-8171', 'addr:street': 'Ackroyd Road', 'addr:city': 'Richmond'}"
202,1721,49.3262139,-123.1359438,2019-10-29T17:29:30.000-07:00,restaurant,Nando's,"{'brand:wikidata': 'Q3472954', 'wheelchair': 'yes', 'addr:housenumber': '722', 'level': '0', 'brand:wikipedia': ""en:Nando's"", 'cuisine': 'chicken;portuguese', 'addr:street': 'Main Street', 'brand': ""Nando's""}"
203,1741,49.1876678,-122.5519418,2016-01-26T23:05:26.000-08:00,restaurant,Pizza,{'cuisine': 'pizza'}
204,1750,49.1645574,-122.6646365,2020-02-11T02:31:22.000-08:00,restaurant,Nando's,"{'brand:wikidata': 'Q3472954', 'cuisine': 'chicken;portuguese', 'brand': ""Nando's"", 'brand:wikipedia': ""en:Nando's""}"
205,1754,49.2373483,-122.8529856,2012-10-07T03:23:42.000-07:00,restaurant,Pho 99,"{'cuisine': 'vietnamese', 'source': 'survey'}"
206,1755,49.2332102,-122.8521201,2020-01-09T05:58:26.000-08:00,restaurant,Cactus Club Cafe,"{'addr:housenumber': '101', 'website': 'https://www.cactusclubcafe.com/location/coquitlam/', 'phone': '+1-604-777-0440', 'smoking': 'no', 'opening_hours': 'Mo-Th 11:00-24:00; Fr-Sa 11:30-01:00; Su 11:30-24:00', 'cuisine': 'american', 'outdoor_seating': 'yes', 'addr:street': 'Schoolhouse Street', 'addr:postcode': 'V3L 3P4', 'addr:unit': '110', 'addr:city': 'Coquitlam'}"
207,1757,49.28226,-122.7986273,2018-12-23T21:49:13.000-08:00,restaurant,Delicious Pho,{'cuisine': 'vietnamese'}
208,1765,49.2774955,-122.7913574,2019-07-17T21:24:14.000-07:00,restaurant,Sushi Oyama,"{'cuisine': 'sushi', 'addr:housenumber': '3055', 'website': 'http://www.sushioyama.ca', 'addr:street': 'Anson Avenue', 'phone': '+1-604-474-1054'}"
209,1773,49.2802313,-123.1103114,2014-12-15T00:39:40.000-08:00,restaurant,Fatburger,{}
210,1779,49.217228,-122.5936509,2019-12-24T04:03:59.000-08:00,restaurant,Red Robin,"{'brand:wikidata': 'Q7304886', 'official_name': 'Red Robin Gourmet Burgers and Brews', 'addr:housenumber': '22701', 'brand:wikipedia': 'en:Red Robin', 'cuisine': 'burger', 'addr:street': 'Lougheed Highway', 'brand': 'Red Robin'}"
211,1791,49.2903487,-123.1342776,2019-12-25T03:21:06.000-08:00,restaurant,Momo Sushi,"{'addr:province': 'BC', 'cuisine': 'sushi', 'addr:housenumber': '833', 'addr:street': 'Bidwell Street', 'addr:city': 'Vancouver'}"
212,1799,49.2637686,-123.1632614,2019-10-09T05:27:10.000-07:00,restaurant,White Spot,"{'brand:wikidata': 'Q7995414', 'addr:housenumber': '2518', 'brand:wikipedia': 'en:White Spot', 'cuisine': 'burger', 'addr:street': 'West Broadway', 'brand': 'White Spot'}"
213,1801,49.212557,-122.9192842,2020-04-16T23:44:05.000-07:00,restaurant,The Chopped Leaf,"{'addr:province': 'BC', 'addr:housenumber': '531', 'addr:country': 'CA', 'addr:street': '6th St', 'addr:postcode': 'V3L 3B9', 'addr:city': 'New Westminster'}"
214,1804,49.137448,-122.8912035,2020-04-17T00:32:37.000-07:00,restaurant,Chopped Leaf,"{'addr:province': 'BC', 'addr:housenumber': '7347a', 'addr:country': 'CA', 'addr:street': '120 St', 'addr:postcode': 'V4C 6P5', 'addr:city': 'Delta'}"
215,1805,49.2734,-122.7884457,2019-09-13T13:57:05.000-07:00,restaurant,Freshii,"{'brand:wikidata': 'Q5503051', 'addr:housenumber': '2755', 'brand:wikipedia': 'en:Freshii', 'cuisine': 'salad', 'addr:street': 'Lougheed Highway', 'brand': 'Freshii', 'addr:unit': '31A', 'addr:city': 'Port Coquitlam'}"
216,1818,49.2759195,-123.1245551,2019-09-18T23:00:49.000-07:00,restaurant,Nuba,"{'addr:housenumber': '508', 'phone': '+1-604-661-4129', 'smoking': 'no', 'opening_hours': 'Su-We 11:30-16:00,17:00-21:00; Th-Sa 11:30-16:00,17:00-22:00', 'cuisine': 'lebanese', 'outdoor_seating': 'yes', 'addr:street': 'Davie Street', 'payment:debit_cards': 'yes', 'addr:city': 'Vancouver'}"
217,1828,49.3359055,-123.0376105,2019-07-07T22:34:44.000-07:00,restaurant,Pizza Hut,"{'brand:wikidata': 'Q191615', 'cuisine': 'pizza', 'brand': 'Pizza Hut', 'brand:wikipedia': 'en:Pizza Hut'}"
218,1829,49.2637937,-123.1399831,2019-08-29T18:25:42.000-07:00,restaurant,Freshii,"{'brand:wikidata': 'Q5503051', 'cuisine': 'salad', 'brand': 'Freshii', 'brand:wikipedia': 'en:Freshii', 'addr:unit': '102'}"
219,1833,49.0330673,-123.0692551,2019-08-18T09:07:49.000-07:00,restaurant,Browns Socialhouse,{}
220,1834,49.0311535,-123.0691973,2019-08-18T10:15:50.000-07:00,restaurant,Pizza Hut,"{'brand:wikidata': 'Q191615', 'cuisine': 'pizza', 'brand': 'Pizza Hut', 'brand:wikipedia': 'en:Pizza Hut'}"
221,1840,49.133789,-122.8406633,2019-09-13T13:57:05.000-07:00,restaurant,Pizza Hut,"{'brand:wikidata': 'Q191615', 'addr:housenumber': '13753', 'brand:wikipedia': 'en:Pizza Hut', 'cuisine': 'pizza', 'addr:street': '72 Avenue', 'brand': 'Pizza Hut', 'addr:unit': '103', 'addr:city': 'Surrey'}"
222,1846,49.135356,-122.8430621,2019-09-13T13:57:05.000-07:00,restaurant,Panago Pizza,"{'cuisine': 'pizza', 'addr:housenumber': '7320', 'addr:street': 'King George Boulevard', 'addr:unit': '114', 'addr:city': 'Surrey'}"
223,1848,49.1381113,-122.8449545,2019-09-13T13:57:05.000-07:00,restaurant,Boston Pizza,"{'brand:wikidata': 'Q894578', 'addr:housenumber': '7488', 'brand:wikipedia': 'en:Boston Pizza', 'cuisine': 'pizza', 'addr:street': 'King George Boulevard', 'brand': 'Boston Pizza', 'addr:unit': '600', 'addr:city': 'Surrey'}"
224,1856,49.0268333,-122.2660017,2019-11-10T20:24:41.000-08:00,restaurant,The Pantry,"{'website': 'http://www.thepantry.ca/index.php/locations/bc/abbotsford', 'internet_access': 'wlan', 'phone': '+1-604-850-7101', 'internet_access:fee': 'no', 'opening_hours': 'Su-Th 06:30-21:30; Fr-Sa 06:30-22:00', 'description': '[home fresh] Restaurants', 'cuisine': 'pancake'}"
225,1859,49.2638501,-123.1448497,2019-09-13T13:56:49.000-07:00,restaurant,Denny's,"{'brand:wikidata': 'Q1189695', 'addr:housenumber': '1759', 'brand:wikipedia': ""en:Denny's"", 'opening_hours': 'Mo-Su 06:00-00:00', 'cuisine': 'american', 'addr:street': 'West Broadway', 'brand': ""Denny's"", 'addr:city': 'Vancouver'}"
226,1862,49.049511,-122.2950498,2019-09-02T22:08:25.000-07:00,restaurant,Zaika Tastes of India,"{'website': 'http://www.zaikaabbotsford.ca', 'phone': '+1-604-756-0535', 'level': '0', 'opening_hours': 'Mo-Sa 11:00-21:00; Su 12:00-21:00 || Mo-Fr 11:30-14:00 open ""Lunch Buffet""', 'cuisine': 'indian', 'addr:unit': '10'}"
227,1867,49.1859102,-122.7987909,2019-02-24T04:50:20.000-08:00,restaurant,Barcelos,"{'cuisine': 'portuguese', 'addr:housenumber': '15280', 'addr:street': '101 Avenue'}"
228,1872,49.282833,-123.1154195,2019-09-13T13:56:49.000-07:00,restaurant,Peaceful Restaurant,"{'addr:housenumber': '602', 'website': 'http://www.peacefulrestaurant.com', 'phone': '+1-604-313-1333', 'cuisine': 'chinese', 'addr:street': 'Seymour Street', 'addr:postcode': 'V6B 3K4', 'addr:city': 'Vancouver'}"
229,1873,49.2688121,-123.0448771,2019-09-13T13:56:49.000-07:00,restaurant,Thai Son Restaurant,"{'addr:housenumber': '2800', 'website': 'http://www.thaison.ca/', 'level': '1', 'cuisine': 'vietnamese', 'addr:street': 'East 1st Avenue', 'addr:city': 'Vancouver'}"
230,1875,49.0585182,-122.3788725,2019-05-27T07:56:16.000-07:00,restaurant,Freshii,"{'brand:wikidata': 'Q5503051', 'website': 'https://www.freshii.com/ca/en-ca/highstreetmallvancouver', 'level': '2', 'brand:wikipedia': 'en:Freshii', 'cuisine': 'salad', 'brand': 'Freshii', 'addr:unit': 'C105', 'layer': '2'}"
231,1890,49.1051552,-122.8057256,2019-09-23T20:08:40.000-07:00,restaurant,Mahek Restaurant & Lounge,"{'addr:housenumber': '15133', 'addr:street': '56 Ave', 'addr:city': 'Surrey'}"
232,1891,49.1057505,-122.8021287,2016-10-11T01:33:17.000-07:00,restaurant,White Spot,"{'addr:housenumber': '15157', 'addr:street': 'Highway 10'}"
233,1892,49.1857185,-122.7997834,2019-02-24T04:50:20.000-08:00,restaurant,Bubble World,"{'cuisine': 'chinese', 'addr:housenumber': '10090', 'addr:street': '152 Street', 'level': '0'}"
234,1893,49.1869381,-122.8000621,2019-03-16T04:26:18.000-07:00,restaurant,Pizza Hut,"{'brand:wikidata': 'Q191615', 'addr:housenumber': '10160', 'brand:wikipedia': 'en:Pizza Hut', 'cuisine': 'pizza', 'addr:street': '152 Street', 'brand': 'Pizza Hut'}"
235,1894,49.1869046,-122.8005383,2019-02-18T01:16:17.000-08:00,restaurant,Earls,"{'addr:housenumber': '10160', 'website': 'https://www.earls.ca/', 'phone': '+1-604-584-0840', 'opening_hours': 'Su-We 11:30-23:00; Th-Sa 11:30-00:00', 'cuisine': 'american', 'addr:street': '152 Street'}"
236,1902,49.124381,-122.7052164,2019-09-13T13:57:07.000-07:00,restaurant,Village Sushi,"{'cuisine': 'sushi', 'addr:housenumber': '18690', 'addr:street': 'Fraser Highway', 'addr:unit': '312', 'addr:city': 'Surrey'}"
237,1905,49.1078659,-122.6596014,2019-09-13T13:57:07.000-07:00,restaurant,Pho Tau Bay,"{'cuisine': 'vietnamese', 'addr:housenumber': '5790', 'addr:street': '203 Street', 'addr:city': 'Langley'}"
238,1907,49.0908788,-123.0833668,2019-09-05T06:38:44.000-07:00,restaurant,Pizza Hut,"{'brand:wikidata': 'Q191615', 'cuisine': 'pizza', 'brand': 'Pizza Hut', 'brand:wikipedia': 'en:Pizza Hut'}"
239,1910,49.2572846,-123.1269819,2015-05-22T06:38:15.000-07:00,restaurant,De Dutch,"{'opening_hours': 'Mo-Fr 07:30-15:00; Sa-Su 08:00-15:00', 'wheelchair': 'limited', 'cuisine': 'breakfast', 'addr:housenumber': '3192', 'addr:street': 'Oak Street'}"
240,1924,49.2202174,-122.6568995,2020-01-06T07:51:28.000-08:00,restaurant,De Dutch Pannekoek House,"{'addr:province': 'BC', 'addr:housenumber': '20395', 'addr:street': 'Lougheed Highway', 'addr:unit': '600', 'addr:city': 'Maple Ridge'}"
241,1925,49.2201784,-122.6577511,2020-01-06T07:51:28.000-08:00,restaurant,Big Star Sandwich Co.,"{'addr:province': 'BC', 'addr:housenumber': '11959', 'addr:street': '203 Street', 'addr:unit': '103', 'addr:city': 'Maple Ridge'}"
242,1930,49.2853939,-123.1114016,2019-09-13T13:56:49.000-07:00,restaurant,Rogue Kitchen & Wetbar,"{'addr:housenumber': '601', 'website': 'https://roguewetbar.com/', 'addr:street': 'West Cordova Street', 'addr:postcode': 'V6B 1E1', 'addr:city': 'Vancouver'}"
243,1931,49.263427,-123.1396262,2019-03-22T02:47:00.000-07:00,restaurant,Cactus Club Cafe,"{'cuisine': 'Global', 'addr:housenumber': '1530', 'website': 'https://www.cactusclubcafe.com/', 'addr:street': 'West Broadway', 'phone': '+1-604-733-0434'}"
244,1938,49.0502826,-122.3175498,2019-10-29T04:00:37.000-07:00,restaurant,Nando's,"{'brand:wikidata': 'Q3472954', 'cuisine': 'chicken;portuguese', 'brand': ""Nando's"", 'brand:wikipedia': ""en:Nando's"", 'addr:unit': '64'}"
245,1945,49.1121157,-122.6506343,2019-12-03T05:25:30.000-08:00,restaurant,Cora,"{'brand:wikidata': 'Q2996960', 'addr:housenumber': '20670', 'brand:wikipedia': 'en:Cora (restaurant)', 'cuisine': 'breakfast', 'addr:street': 'Langley Bypass', 'brand': 'Cora', 'addr:unit': 'C104', 'addr:city': 'Langley'}"
246,1947,49.1097163,-122.6789018,2019-09-13T13:57:04.000-07:00,restaurant,IHOP,"{'brand:wikidata': 'Q1185675', 'addr:housenumber': '19700', 'brand:wikipedia': 'en:IHOP', 'cuisine': 'breakfast;pancake', 'addr:street': 'Langley Bypass', 'brand': 'IHOP', 'addr:city': 'Langley'}"
247,1948,49.1172095,-122.6795523,2019-09-13T13:57:04.000-07:00,restaurant,Pasta Polo,"{'addr:housenumber': '19665', 'addr:street': 'Willowbrook Drive', 'addr:unit': '114', 'addr:city': 'Langley'}"
248,1949,49.1170227,-122.6751086,2019-11-22T21:08:39.000-08:00,restaurant,Denny's,"{'brand:wikidata': 'Q1189695', 'addr:housenumber': '19777', 'brand:wikipedia': ""en:Denny's"", 'cuisine': 'american', 'addr:street': 'Willowbrook Drive', 'brand': ""Denny's"", 'addr:city': 'Langley'}"
249,1950,49.1188311,-122.6788097,2019-09-13T13:57:04.000-07:00,restaurant,Townhall Public House,"{'addr:housenumber': '19640', 'addr:street': '64 Avenue', 'addr:unit': '101', 'addr:city': 'Langley'}"
250,1959,49.287548,-123.1210389,2019-03-07T08:23:42.000-08:00,restaurant,Heritage Asian Eatery,{'cuisine': 'asian'}
251,1964,49.2869324,-123.1246607,2019-09-13T13:57:07.000-07:00,restaurant,Freshii,"{'brand:wikidata': 'Q5503051', 'addr:housenumber': '1185', 'brand:wikipedia': 'en:Freshii', 'cuisine': 'salad', 'addr:street': 'West Georgia Street', 'brand': 'Freshii', 'addr:city': 'Vancouver'}"
252,1965,49.279771,-123.1299269,2019-06-15T00:47:47.000-07:00,restaurant,Joe's Grill,"{'opening_hours': 'Mo-Fr 07:00-16:00; Sa,Su 07:00-17:00', 'wheelchair': 'yes', 'addr:housenumber': '1031', 'addr:street': 'Davie Street', 'addr:city': 'Vancouver'}"
253,1968,49.0419035,-123.0853223,2019-07-29T04:44:35.000-07:00,restaurant,Nando's,"{'brand:wikidata': 'Q3472954', 'addr:housenumber': '4949', 'brand:wikipedia': ""en:Nando's"", 'cuisine': 'chicken;portuguese', 'addr:street': 'Canoe Pass Way', 'brand': ""Nando's"", 'addr:unit': '902'}"
254,1970,49.035275,-123.0884974,2020-01-29T01:46:43.000-08:00,restaurant,Boston Pizza,"{'brand:wikidata': 'Q894578', 'addr:province': 'British Columbia', 'addr:housenumber': '5000', 'brand:wikipedia': 'en:Boston Pizza', 'cuisine': 'pizza', 'addr:street': 'Canoe Pass Way', 'addr:postcode': 'V4E 0B3', 'brand': 'Boston Pizza', 'addr:city': 'Delta'}"
255,1971,49.0351515,-123.088867,2020-01-29T01:46:43.000-08:00,restaurant,Milestones,"{'addr:province': 'British Columbia', 'addr:housenumber': '5000', 'addr:street': 'Canoe Pass Way', 'addr:postcode': 'V4E 0B3', 'addr:city': 'Delta'}"
256,1972,49.035036,-123.0876345,2020-01-29T01:46:43.000-08:00,restaurant,Montana's,"{'brand:wikidata': 'Q17022490', 'addr:province': 'British Columbia', 'official_name': ""Montana's BBQ & Bar"", 'addr:housenumber': '5000', 'brand:wikipedia': ""en:Montana's BBQ & Bar"", 'cuisine': 'barbecue', 'addr:street': 'Canoe Pass Way', 'addr:postcode': 'V4E 0B3', 'brand': ""Montana's"", 'addr:city': 'Delta'}"
257,1973,49.2534148,-122.7397591,2020-04-17T18:21:07.000-07:00,restaurant,Chopped Leaf,"{'addr:province': 'BC', 'addr:housenumber': '873', 'addr:country': 'CA', 'addr:street': 'Village Drive', 'addr:postcode': 'V3B 0G9', 'addr:city': 'Port Coquitlam'}"
258,1975,49.2563016,-122.7482111,2019-09-13T13:57:05.000-07:00,restaurant,Boston Pizza,"{'brand:wikidata': 'Q894578', 'addr:housenumber': '2325', 'brand:wikipedia': 'en:Boston Pizza', 'cuisine': 'pizza', 'addr:street': 'Ottawa Street', 'brand': 'Boston Pizza', 'addr:unit': '300', 'addr:city': 'Port Coquitlam'}"
259,1980,49.1732885,-123.1465196,2019-10-29T03:23:55.000-07:00,restaurant,Dinesty Dumpling House,"{'cuisine': 'chinese', 'addr:housenumber': '5555', 'addr:street': 'Gilbert Road', 'addr:unit': '150', 'addr:city': 'Richmond'}"
260,1985,49.1898359,-122.7991897,2019-09-13T13:57:05.000-07:00,restaurant,Sushi California,"{'cuisine': 'sushi', 'addr:housenumber': '10320', 'addr:street': '152A Street', 'addr:city': 'Surrey'}"
261,1987,49.2482354,-123.1009003,2019-09-13T13:57:05.000-07:00,restaurant,Boiling Point,"{'opening_hours': 'Mo-Su 11:00-23:00', 'addr:housenumber': '4148', 'addr:street': 'Main Street', 'addr:city': 'Vancouver'}"
262,2000,49.263094,-123.1168038,2019-09-13T13:57:05.000-07:00,restaurant,Hokkaido Ramen Santouka,"{'cuisine': 'noodle', 'addr:housenumber': '558', 'addr:street': 'West Broadway', 'addr:city': 'Vancouver'}"
263,2011,49.3200814,-123.0702446,2019-09-13T13:57:05.000-07:00,restaurant,Nando's,"{'brand:wikidata': 'Q3472954', 'addr:housenumber': '148', 'brand:wikipedia': ""en:Nando's"", 'addr:street': 'East 13th Street', 'brand': ""Nando's"", 'addr:city': 'North Vancouver'}"
264,2016,49.1582411,-122.7820519,2020-03-15T00:57:29.000-07:00,restaurant,Boston Pizza,"{'brand:wikidata': 'Q894578', 'addr:province': 'BC', 'addr:housenumber': '15980', 'brand:wikipedia': 'en:Boston Pizza', 'cuisine': 'pizza', 'addr:street': 'Fraser Highway', 'brand': 'Boston Pizza', 'addr:unit': '801', 'addr:city': 'Surrey'}"
265,2020,49.1611807,-122.8913021,2020-03-15T00:44:42.000-07:00,restaurant,Pho 99,"{'addr:province': 'BC', 'cuisine': 'vietnamese', 'addr:housenumber': '8699', 'addr:street': 'Scott Road', 'addr:city': 'Delta'}"
266,2026,49.187425,-123.1241112,2019-09-13T13:57:04.000-07:00,restaurant,Manzo Japanese Restaurant,"{'addr:housenumber': '9020', 'addr:street': 'Capstan Way', 'addr:unit': '120', 'addr:city': 'Richmond'}"
267,2029,49.1785695,-123.1258748,2019-09-13T13:57:04.000-07:00,restaurant,Liuyishou Hotpot,"{'addr:housenumber': '4731', 'addr:street': 'Garden City Road', 'addr:unit': '150', 'addr:city': 'Richmond'}"
268,2032,49.1776609,-123.1355664,2019-09-13T13:57:04.000-07:00,restaurant,Icy Bar,"{'addr:housenumber': '4940', 'addr:street': 'No. 3 Road', 'addr:unit': '115', 'addr:city': 'Richmond'}"
269,2037,49.2646355,-123.1150768,2019-09-13T13:57:04.000-07:00,restaurant,Pepper Lunch,"{'addr:housenumber': '2323', 'addr:street': 'Cambie Street', 'addr:city': 'Vancouver'}"
270,2039,49.2630818,-123.1264173,2019-09-13T13:57:04.000-07:00,restaurant,Johnny Rockets,"{'brand:wikidata': 'Q1051593', 'addr:housenumber': '2538', 'brand:wikipedia': 'en:Johnny Rockets', 'cuisine': 'burger', 'addr:street': 'Oak Street', 'brand': 'Johnny Rockets', 'addr:city': 'Vancouver'}"
271,2055,49.2701295,-123.0694291,2019-11-02T23:23:36.000-07:00,restaurant,La Mezcaleria,"{'cuisine': 'mexican', 'addr:housenumber': '1622', 'website': 'https://www.lamezcaleria.ca/', 'addr:street': 'Commercial Drive', 'smoking': 'no'}"
272,2056,49.1576414,-122.8907428,2019-09-28T08:09:19.000-07:00,restaurant,Denny's,"{'brand:wikidata': 'Q1189695', 'cuisine': 'american', 'brand': ""Denny's"", 'brand:wikipedia': ""en:Denny's""}"
273,2060,49.2643482,-123.177229,2019-09-13T13:57:05.000-07:00,restaurant,Thai Basil,"{'delivery': 'yes', 'cuisine': 'thai', 'outdoor_seating': 'yes', 'addr:street': 'West Broadway', 'takeaway': 'yes', 'addr:city': 'Vancouver'}"
274,2066,49.2642078,-123.1686252,2019-10-09T05:27:10.000-07:00,restaurant,Pho Japolo,"{'phone': '+1-604-737-1293', 'cuisine': 'vietnamese'}"
275,2069,49.255977,-123.18492,2018-07-14T07:13:58.000-07:00,restaurant,Kuma,"{'cuisine': 'japanese', 'addr:housenumber': '3446', 'addr:street': 'Dunbar Street', 'phone': '+1-604-739-0170'}"
276,2074,49.2887053,-123.130825,2019-09-13T13:57:04.000-07:00,restaurant,The Captain's Boil,"{'addr:housenumber': '1487', 'addr:street': 'Robson Street', 'addr:city': 'Vancouver'}"
277,2075,49.2886307,-123.1306655,2019-09-13T13:57:04.000-07:00,restaurant,Ramen Koika,"{'addr:housenumber': '1479', 'addr:street': 'Robson Street', 'addr:city': 'Vancouver'}"
278,2085,49.0900523,-122.6044165,2019-07-12T07:53:30.000-07:00,restaurant,Nikko Sushi,"{'cuisine': 'sushi', 'addr:postcode': 'V3A 8N3', 'addr:unit': 'D,E', 'url': 'https://sushibob.ca/'}"
279,2087,49.3234388,-123.0726186,2020-01-15T17:05:12.000-08:00,restaurant,Zeitoon,{'name:fr': 'زيتون'}
280,2091,49.2669012,-123.0057206,2019-09-13T13:57:05.000-07:00,restaurant,Browns Socialhouse,"{'addr:housenumber': '1908', 'addr:street': 'Rosser Avenue', 'addr:city': 'Burnaby'}"
281,2096,49.2059041,-123.0111841,2019-09-13T13:57:07.000-07:00,restaurant,Freshii,"{'brand:wikidata': 'Q5503051', 'addr:housenumber': '8605', 'brand:wikipedia': 'en:Freshii', 'cuisine': 'salad', 'addr:street': 'Glenlyon Parkway', 'brand': 'Freshii', 'addr:unit': '4', 'addr:city': 'Burnaby'}"
282,2097,49.2059228,-123.029877,2019-09-13T13:57:07.000-07:00,restaurant,Sushi Mura,"{'cuisine': 'sushi', 'addr:housenumber': '3545', 'addr:street': 'Sawmill Crescent', 'addr:city': 'Vancouver'}"
283,2108,49.116251,-122.6703778,2020-04-17T00:24:56.000-07:00,restaurant,Chopped Leaf,"{'addr:province': 'BC', 'addr:housenumber': '19950', 'website': 'https://www.choppedleaf.ca', 'addr:country': 'CA', 'cuisine': 'sandwich', 'addr:street': 'Willowbrook Drive', 'addr:postcode': 'V2Y 1K9', 'addr:city': 'Langley'}"
284,2110,49.2292462,-123.0012819,2019-09-13T13:56:49.000-07:00,restaurant,China Lan Lanzhou Beef Noodle,"{'addr:housenumber': '4611', 'addr:street': 'Kingsway', 'addr:city': 'Burnaby'}"
285,2112,49.2794927,-123.1143598,2020-01-20T06:49:53.000-08:00,restaurant,Triple O’s,{}
286,2121,49.2681608,-123.1464018,2019-11-28T00:37:06.000-08:00,restaurant,Ramen Danbo,"{'addr:housenumber': '1833', 'addr:street': 'West 4th Avenue', 'source': 'BC Government Openmaps (bc_gvrd_west_xc100mm_2009)', 'addr:city': 'Vancouver'}"
287,2122,49.2631692,-123.1205957,2019-11-28T08:07:46.000-08:00,restaurant,Pacific Poke,"{'addr:province': 'BC', 'addr:housenumber': '730', 'addr:street': 'West Broadway', 'addr:city': 'Vancouver'}"
288,2123,49.3391722,-123.1039532,2019-11-28T08:23:14.000-08:00,restaurant,Bufala,"{'addr:province': 'BC', 'addr:housenumber': '3280', 'addr:street': 'Edgemont Boulevard', 'addr:city': 'North Vancouver'}"
289,2124,49.2584314,-123.0306853,2019-09-02T22:08:25.000-07:00,restaurant,Boston Pizza,"{'diet:vegetarian': 'yes', 'addr:housenumber': '1333', 'phone': '+1-604-730-2822', 'opening_hours': 'Su-Th 11:00-01:00, Fr-Sa 11:00-02:00', 'cuisine': 'american', 'addr:street': 'Grandview Highway', 'addr:postcode': 'V6H 4C1', 'addr:unit': '190'}"
290,2149,49.2809296,-123.0154316,2019-09-13T13:57:05.000-07:00,restaurant,Sopra Sotto,"{'cuisine': 'italian', 'addr:housenumber': '4022', 'addr:street': 'Hastings Street', 'addr:city': 'Burnaby'}"
291,2154,49.2279689,-123.0908789,2019-09-13T13:57:05.000-07:00,restaurant,Indochine Kitchen + Bar,"{'addr:housenumber': '6231', 'addr:street': 'Fraser Street', 'addr:city': 'Vancouver'}"
292,2159,49.269374,-123.1040814,2019-09-13T13:57:04.000-07:00,restaurant,Hon's Wonton House,"{'addr:housenumber': '25', 'addr:street': 'East 2nd Avenue', 'addr:city': 'Vancouver'}"
293,2174,49.3277186,-123.1541273,2019-09-13T13:57:04.000-07:00,restaurant,Heirloom,"{'addr:housenumber': '1390', 'addr:street': 'Marine Drive', 'addr:city': 'West Vancouver'}"
294,2176,49.3273747,-123.1542843,2019-09-13T13:57:04.000-07:00,restaurant,Earls,"{'addr:housenumber': '1375', 'addr:street': 'Bellevue Avenue', 'addr:city': 'West Vancouver'}"
295,2178,49.0492389,-122.3012634,2019-09-02T22:08:25.000-07:00,restaurant,De Dutch Pannekoek House,"{'opening_hours': 'Mo-Fr 07:30-14:30; Sa-Su 08:00-15:00', 'cuisine': 'dutch', 'website': 'http://dedutch.com/locations/abbotsford', 'phone': '+1-604-850-3855', 'addr:unit': '4'}"
296,2181,49.2746568,-122.7909967,2019-09-13T13:56:49.000-07:00,restaurant,Cora,"{'brand:wikidata': 'Q2996960', 'addr:housenumber': '3025', 'brand:wikipedia': 'en:Cora (restaurant)', 'cuisine': 'breakfast', 'addr:street': 'Lougheed Highway', 'brand': 'Cora', 'addr:city': 'Coquitlam'}"
297,2183,49.0415627,-122.2777811,2019-11-09T13:51:46.000-08:00,restaurant,The Keg Steakhouse + Bar,"{'opening_hours': 'Mo-Th 17:00-22:00; Fr 16:30-23:00; Sa 16:00-23:00; Su 16:00-21:30', 'cuisine': 'steak_house', 'website': 'https://www.kegsteakhouse.com/en/locations/BC/abbotsford/abbotsford-keg', 'phone': '+1-604-855-9893', 'level': '1'}"
298,2184,49.1633285,-123.1363369,2019-07-17T21:24:14.000-07:00,restaurant,Memory Corner,"{'addr:housenumber': '6900', 'website': 'http://www.memorycorner8.com', 'phone': '+1-604-284-5434', 'cuisine': 'chinese', 'addr:street': 'No. 3 Rd', 'addr:postcode': 'V6Y 2C5', 'addr:city': 'Richmond'}"
299,2195,49.0479657,-122.3389997,2019-09-02T22:08:25.000-07:00,restaurant,J's Pizza,"{'website': 'http://www.jspizza.ca', 'phone': '+1-604-854-3299', 'opening_hours': 'Su 11:00-00:00; Mo-Th 10:30-00:00; Fr-Sa 10:30-02:00', 'description': 'Abbotsford Location 1', 'cuisine': 'pizza', 'addr:unit': '22'}"
300,2197,49.2914917,-123.1352004,2019-10-29T03:23:55.000-07:00,restaurant,Pacific Poke,"{'addr:housenumber': '1795', 'addr:street': 'Robson Street', 'addr:city': 'Vancouver'}"
301,2204,49.264355,-123.176937,2019-10-29T03:23:55.000-07:00,restaurant,Colony,"{'addr:housenumber': '3255', 'addr:street': 'West Broadway', 'addr:city': 'Vancouver'}"
302,2209,49.1321183,-123.0949806,2019-03-08T11:29:41.000-08:00,restaurant,Pho 37,"{'cuisine': 'vietnamese', 'addr:unit': '3120'}"
303,2212,49.183765,-122.8022751,2020-01-09T06:14:41.000-08:00,restaurant,Browns Social House,"{'addr:housenumber': '15146', 'website': 'https://brownssocialhouse.com/guildford', 'phone': '+1-604-498-4880', 'opening_hours': 'Mo-We 11:00-23:00; Th-Fr 11:00-24:00; Sa 10:00-24:00; Su 10:00-23:00', 'addr:street': '100 Avenue', 'addr:unit': '101'}"
304,2215,49.1781221,-123.1226759,2019-09-13T13:57:05.000-07:00,restaurant,Happy Day Cafe,"{'addr:housenumber': '4771', 'addr:street': 'McClelland Road', 'addr:unit': '1450', 'addr:city': 'Richmond'}"
305,2219,49.2276704,-123.0033251,2019-09-13T13:57:05.000-07:00,restaurant,Cactus Club Cafe,"{'addr:housenumber': '6090', 'addr:street': 'Silver Drive', 'addr:city': 'Burnaby'}"
306,2220,49.2244988,-122.9879749,2019-09-13T13:57:05.000-07:00,restaurant,Boiling Point,"{'addr:housenumber': '5276', 'addr:street': 'Kingsway', 'addr:city': 'Burnaby'}"
307,2229,49.2756694,-122.7944127,2019-04-07T19:33:26.000-07:00,restaurant,Boston Pizza,"{'brand:wikidata': 'Q894578', 'addr:housenumber': '3025', 'brand:wikipedia': 'en:Boston Pizza', 'cuisine': 'pizza', 'addr:street': 'Lougheed Highway', 'brand': 'Boston Pizza', 'addr:city': 'Coquitlam'}"
308,2232,49.2758814,-122.7909785,2020-03-09T01:33:57.000-07:00,restaurant,Pizza Hut,"{'brand:wikidata': 'Q191615', 'addr:province': 'BC', 'website': 'www.pizzahut.ca', 'brand:wikipedia': 'en:Pizza Hut', 'cuisine': 'pizza', 'addr:postcode': 'V3B 6S2', 'addr:unit': '255', 'addr:city': 'Coquitlam', 'addr:housenumber': '3025', 'phone': '(604) 945-3663', 'opening_hours': 'Su 12:00-23:00 Mo-Th 11:00-23:00 Fr-Sa 11:00-23:59', 'addr:street': 'Lougheed Highway', 'brand': 'Pizza Hut'}"
309,2255,49.1047611,-122.6609055,2019-06-07T13:28:04.000-07:00,restaurant,Pizza Factory,"{'brand:wikidata': 'Q39054369', 'addr:housenumber': '20285', 'level': '0', 'brand:wikipedia': 'en:Pizza Factory', 'cuisine': 'pizza', 'addr:street': '56 Avenue', 'addr:postcode': 'V3A 3Y6', 'brand': 'Pizza Factory', 'addr:city': 'Langley'}"
310,2257,49.1856845,-123.1294413,2018-02-11T18:38:37.000-08:00,restaurant,Pearl Castle Cafe,"{'addr:housenumber': '3779', 'website': 'http://www.pearlcastle.com/', 'phone': '+1-604-270-3939', 'cuisine': 'Taiwanese', 'addr:street': 'Sexsmith Road', 'addr:city': 'Richmond'}"
311,2264,49.2005315,-122.9182651,2014-04-23T18:57:35.000-07:00,restaurant,Boston Pizza,"{'cuisine': 'american', 'capacity': '150'}"
312,2267,49.2738174,-122.7924448,2020-01-17T07:58:29.000-08:00,restaurant,Nando's,"{'brand:wikidata': 'Q3472954', 'cuisine': 'chicken;portuguese', 'brand': ""Nando's"", 'brand:wikipedia': ""en:Nando's""}"
313,2271,49.2680789,-123.1573053,2019-09-25T04:12:40.000-07:00,restaurant,Browns Social House,{'brand': 'Browns Social House'}
314,2274,49.2637211,-123.1347841,2020-02-15T18:05:28.000-08:00,restaurant,Boston Pizza,"{'brand:wikidata': 'Q894578', 'brand:wikipedia': 'en:Boston Pizza', 'opening_hours': 'Mo-Su 11:00-02:00', 'cuisine': 'pizza', 'brand': 'Boston Pizza', 'addr:city': 'Vancouver'}"
315,2283,49.0581186,-122.3805304,2019-02-18T01:20:27.000-08:00,restaurant,Memphis Blues BBQ House,"{'opening_hours': 'Su-Th 11:00-22:00; Fr,Sa 11:00-23:00', 'cuisine': 'barbecue', 'website': 'https://www.memphisbluesbbq.com/', 'addr:unit': 'F100', 'layer': '2'}"
316,2284,49.0504976,-122.326893,2019-09-02T22:08:25.000-07:00,restaurant,Original Joe's Restaurant & Bar,"{'opening_hours': 'Su-Th 11:00-00:00; Fr-Sa 11:00-01:00', 'website': 'https://www.originaljoes.ca/home/south-fraser-gate', 'phone': '+1-604-504-5690', 'addr:unit': '101'}"
317,2287,49.2315009,-123.005591,2019-09-13T13:56:49.000-07:00,restaurant,Pearl Castle Cafe,"{'addr:housenumber': '4429', 'addr:street': 'Kingsway', 'addr:unit': '14', 'addr:city': 'Burnaby'}"
318,2292,49.2291311,-123.0008684,2015-05-22T06:00:48.000-07:00,restaurant,Sushi Garden,{'cuisine': 'japanese'}
319,2293,49.1294146,-122.3186475,2020-05-07T09:06:20.000-07:00,restaurant,White Spot,"{'brand:wikidata': 'Q7995414', 'website': 'https://www.whitespot.ca/location/mission', 'phone': '+1-604-820-6642', 'brand:wikipedia': 'en:White Spot', 'drive_through': 'yes', 'opening_hours': 'Su-Th 07:00-22:00; Fr-Sa 07:00-23:00', 'cuisine': 'burger', 'outdoor_seating': 'yes', 'brand': 'White Spot', 'addr:unit': '152'}"
320,2294,49.0444502,-122.2217322,2020-04-17T19:38:07.000-07:00,restaurant,Chopped Leaf,"{'addr:province': 'BC', 'addr:housenumber': '2362', 'website': 'https://www.choppedleaf.ca/location/sumasmountainvillage', 'phone': '+1-604-859-0580', 'addr:country': 'CA', 'cuisine': 'salad', 'addr:street': 'Whatcom Road', 'addr:postcode': 'V3G 1E1', 'addr:city': 'Abbotsford'}"
321,2296,49.1916811,-122.8233993,2020-02-16T04:29:33.000-08:00,restaurant,Phở Hòa,"{'brand:wikidata': 'Q55629932', 'name:vi': 'Phở Hòa', 'website': 'https://phohoa.com/', 'brand:wikipedia': 'en:Phở Hòa', 'cuisine': 'vietnamese;noodle', 'addr:unit': '102', 'capacity': '50', 'addr:housenumber': '14357', 'alt_name': 'Phở Hoà', 'alt_name:en': 'Pho Hoa', 'phone': '+1-604-581-3289', 'smoking': 'no', 'opening_hours': 'Su-Sa 10:00-23:30', 'alt_name:vi': 'Phở Hoà', 'addr:street': '104 Avenue', 'brand': 'Phở Hòa'}"
322,2298,49.2485254,-123.1256302,2019-07-05T04:00:18.000-07:00,restaurant,Osaka Sushi,"{'opening_hours': 'Mo-Sa 10:30-21:30', 'cuisine': 'sushi', 'addr:housenumber': '960', 'addr:street': 'West King Edward Avenue'}"
323,2299,49.3242115,-123.1039789,2019-12-27T00:25:12.000-08:00,restaurant,Boston Pizza,"{'brand:wikidata': 'Q894578', 'cuisine': 'pizza', 'brand': 'Boston Pizza', 'brand:wikipedia': 'en:Boston Pizza'}"
324,2303,49.2826581,-122.8253857,2019-08-18T08:46:59.000-07:00,restaurant,Vera's Burger Shack,{}
325,2304,49.2823076,-122.8261405,2019-08-18T09:12:44.000-07:00,restaurant,FreshSlice Pizza,"{'cuisine': 'pizza', 'level': '1', 'takeaway': 'only'}"
326,2307,49.0416362,-123.0830145,2020-04-18T23:45:02.000-07:00,restaurant,De Dutch,"{'cuisine': 'pancake;breakfast', 'addr:unit': '504'}"
327,2310,49.1763527,-123.1318255,2019-10-28T15:41:35.000-07:00,restaurant,Earl's,"{'phone': '+1-604-303-9702', 'website': 'http://www.earls.ca/locations/search/details/16/richmond/restaurant/earls-richmond-lansdowne'}"
328,2312,49.2631506,-123.1216282,2019-11-28T08:07:46.000-08:00,restaurant,Meat & Bread,"{'addr:province': 'BC', 'addr:housenumber': '796', 'addr:street': 'West Broadway', 'addr:city': 'Vancouver'}"
329,2313,49.249426,-122.8923971,2019-09-13T13:56:58.000-07:00,restaurant,Sushi California,"{'delivery': 'no', 'addr:housenumber': '501', 'phone': '+1-604-931-8284', 'cuisine': 'sushi', 'addr:street': 'North Road', 'addr:postcode': 'V3J 1N7', 'takeaway': 'yes', 'addr:city': 'Coquitlam'}"
330,2322,49.2882184,-123.1265091,2020-02-25T19:21:02.000-08:00,restaurant,TurF,"{'addr:province': 'BC', 'addr:housenumber': '1281', 'addr:street': 'West Georgia Street', 'addr:city': 'Vancouver'}"
331,2324,49.2506156,-123.1011955,2020-02-25T19:28:04.000-08:00,restaurant,Sushi Mania,"{'addr:province': 'BC', 'cuisine': 'sushi', 'addr:housenumber': '3851', 'addr:street': 'Main Street', 'addr:city': 'Vancouver'}"
332,2327,49.2819039,-122.8008628,2019-01-28T00:12:03.000-08:00,restaurant,Copa Cafe,{'cuisine': 'chinese'}
333,2328,49.0902825,-123.0845074,2019-09-05T07:39:04.000-07:00,restaurant,Sapporo Kitchen,"{'cuisine': 'japanese', 'website': 'https://www.sapporokitchenladner.com'}"
334,2329,49.2819109,-123.1135011,2019-09-13T13:56:49.000-07:00,restaurant,White Spot,"{'brand:wikidata': 'Q7995414', 'wheelchair': 'yes', 'brand:wikipedia': 'en:White Spot', 'cuisine': 'burger', 'addr:postcode': 'V6B 1X4', 'addr:city': 'Vancouver', 'capacity': '249', 'diet:vegetarian': 'yes', 'addr:housenumber': '405', 'smoking': 'no', 'opening_hours': 'Mo-Th 06:30-23:00; Fr 06:30-00:00; Sa 08:00-00:00; Su 08:00-23:00', 'addr:street': 'Dunsmuir Street', 'brand': 'White Spot'}"
335,2332,49.1194864,-122.664838,2019-09-13T13:56:58.000-07:00,restaurant,Big Star Sandwich Co.,"{'addr:housenumber': '20125', 'website': 'http://www.flyingwedge.com/store/langley', 'phone': '+1-604-534-8180', 'addr:street': '64 Avenue', 'addr:unit': '106', 'addr:city': 'Langley'}"
336,2335,49.2802104,-123.1311973,2020-05-08T03:00:09.000-07:00,restaurant,Denny's,"{'brand:wikidata': 'Q1189695', 'internet_access': 'wlan', 'brand:wikipedia': ""en:Denny's"", 'cuisine': 'american', 'takeaway': 'yes', 'addr:city': 'Vancouver', 'addr:housenumber': '1098', 'smoking': 'no', 'opening_hours': '24/7', 'outdoor_seating': 'no', 'addr:street': 'Davie Street', 'brand': ""Denny's""}"
337,2345,49.1586386,-122.7799669,2019-09-13T13:57:04.000-07:00,restaurant,Salty's Fish & Chips,"{'addr:housenumber': '15953', 'addr:street': 'Fraser Highway', 'addr:postcode': 'V4N 0Y3', 'addr:unit': '101', 'addr:city': 'Surrey'}"
338,2346,49.1583928,-122.7802234,2019-09-13T13:57:04.000-07:00,restaurant,Pizza Hut,"{'addr:housenumber': '15951', 'cuisine': 'pizza', 'addr:street': 'Fraser Highway', 'addr:postcode': 'V4N 0Y3', 'addr:unit': '103', 'addr:city': 'Surrey'}"
339,2350,49.2811182,-123.0728439,2019-09-13T13:57:04.000-07:00,restaurant,Yolks,"{'addr:housenumber': '1598', 'addr:street': 'East Hastings Street', 'addr:city': 'Vancouver'}"
340,2360,49.2753733,-123.0692541,2019-03-17T02:32:41.000-07:00,restaurant,The Reef,"{'addr:housenumber': '1018', 'website': 'https://www.thereefrestaurant.com/', 'cuisine': 'caribbean', 'addr:street': 'Commercial Drive', 'addr:postcode': 'V5L 3W9', 'addr:city': 'Vancouver'}"
341,2361,49.2876624,-123.1155926,2019-09-13T13:56:49.000-07:00,restaurant,Rogue Kitchen & Wetbar,"{'addr:housenumber': '200', 'website': 'https://roguewetbar.com/', 'cuisine': 'Global', 'addr:street': 'Burrard Street', 'addr:postcode': 'V6C 3L6', 'addr:city': 'Vancouver'}"
342,2368,49.2815936,-123.1237542,2017-09-18T23:53:51.000-07:00,restaurant,Earl's,"{'opening_hours': 'Su-Th 11:30-00:00; Fr-Sa 11:30-01:00', 'cuisine': 'american', 'addr:housenumber': '905', 'addr:street': 'Hornby Street', 'addr:city': 'Vancouver'}"
343,2378,49.2509194,-122.8926149,2020-06-10T01:29:36.000-07:00,restaurant,Kokoro Tokyo Mazesoba,"{'addr:province': 'BC', 'addr:housenumber': '531', 'addr:street': 'North Road', 'addr:unit': '109', 'addr:city': 'Coquitlam'}"
344,2390,49.1844834,-123.1283585,2019-09-13T13:57:04.000-07:00,restaurant,L'OTUS Cake Boutique,"{'addr:housenumber': '8580', 'addr:street': 'Cambie Road', 'addr:unit': '103', 'addr:city': 'Richmond'}"
345,2395,49.1849382,-123.129882,2019-09-13T13:57:04.000-07:00,restaurant,Sushi House,"{'addr:housenumber': '3779', 'addr:street': 'Sexsmith Road', 'addr:unit': '2182', 'addr:city': 'Richmond'}"
346,2404,49.281185,-123.1322275,2020-04-04T00:54:27.000-07:00,restaurant,Neptune Chinese Kitchen,"{'addr:housenumber': '1143', 'phone': '+1-604-559-9238', 'opening_hours': 'We-Mo 11:00-22:00', 'cuisine': 'chinese', 'outdoor_seating': 'no', 'addr:street': 'Davie Street', 'takeaway': 'yes'}"
347,2405,49.2596044,-123.0019382,2019-07-07T04:11:10.000-07:00,restaurant,The Keg,"{'brand:wikidata': 'Q7744066', 'cuisine': 'steak_house', 'brand': 'The Keg', 'brand:wikipedia': 'en:The Keg'}"
348,2414,49.2192936,-122.9273351,2019-07-10T04:41:29.000-07:00,restaurant,Pizza Factory,"{'brand:wikidata': 'Q39054369', 'delivery': 'yes', 'addr:housenumber': '7898', 'website': 'http://pizzafactoryburnaby.com/', 'brand:wikipedia': 'en:Pizza Factory', 'opening_hours': 'Su-Th 16:00-24:00; Fr,Sa 11:00-02:00', 'cuisine': 'pizza', 'addr:street': '6th Street', 'takeaway': 'yes', 'brand': 'Pizza Factory', 'addr:city': 'Burnaby'}"
349,2418,49.1876258,-122.8459699,2019-08-24T15:23:01.000-07:00,restaurant,White Spot,"{'brand:wikidata': 'Q7995414', 'wheelchair': 'yes', 'website': 'https://www.whitespot.ca/', 'brand:wikipedia': 'en:White Spot', 'cuisine': 'burger', 'source': 'City of Surrey 2010 GIS Data', 'takeaway': 'yes', 'surrey:date': '19850801', 'addr:city': 'Surrey', 'addr:housenumber': '13580', 'phone': '+1-604-581-2511', 'surrey:addrid': '42220', 'smoking': 'no', 'opening_hours': 'Mo-Sa 06:30-23:00; Su 08:00-22:00', 'addr:street': '102 Avenue', 'brand': 'White Spot'}"
350,2423,49.1654248,-122.6646457,2020-04-16T23:56:06.000-07:00,restaurant,Chopped Leaf,"{'addr:province': 'BC', 'addr:housenumber': '20159', 'addr:country': 'CA', 'addr:street': '88 Avenue', 'addr:postcode': 'V1M 0A4', 'addr:unit': 'C108', 'addr:city': 'Langley'}"
351,2424,49.0505874,-122.324938,2020-04-17T15:25:52.000-07:00,restaurant,Chopped Leaf,"{'addr:province': 'BC', 'addr:housenumber': '32500', 'addr:country': 'CA', 'addr:street': 'South Fraser Way', 'addr:postcode': 'V2T 4W1', 'addr:unit': 'H220', 'addr:city': 'Abbotsford'}"
352,2425,49.219668,-122.6557491,2020-04-17T18:17:31.000-07:00,restaurant,Chopped Leaf,"{'addr:province': 'BC', 'addr:housenumber': '20395', 'addr:country': 'CA', 'addr:street': 'Lougheed Highway', 'addr:postcode': 'V2X 2P9', 'addr:unit': '520', 'addr:city': 'Maple Ridge'}"
353,2433,49.286882,-123.1420929,2019-10-28T15:41:35.000-07:00,restaurant,Milestones,"{'addr:housenumber': '1210', 'website': 'https://www.milestonesrestaurants.com/', 'phone': '+1-604-662-3431', 'name:en': 'Hook Seabar', 'addr:street': 'Denman Street', 'addr:postcode': 'V6G 2N2'}"
354,2437,49.0255218,-123.0675202,2020-04-28T00:17:48.000-07:00,restaurant,Chopped Leaf,"{'addr:province': 'BC', 'addr:housenumber': '1236', 'addr:country': 'CA', 'addr:street': '56 Street', 'addr:postcode': 'V4L 2A4', 'addr:city': 'Delta'}"
355,2438,49.254363,-123.2362315,2019-04-29T21:29:21.000-07:00,restaurant,Chef Hung Taiwanese Beef Noodle,"{'addr:housenumber': '3313', 'website': 'https://www.chefhungnoodle.com/ubc_vancouver/eng/', 'phone': '+1-604-228-8765', 'cuisine': 'chinese', 'addr:street': 'Shrum Lane', 'addr:postcode': 'V6S 0B0', 'addr:city': 'Vancouver'}"
356,2439,49.0502823,-122.3260169,2019-09-02T22:08:25.000-07:00,restaurant,Wok Box,"{'delivery': 'no', 'addr:housenumber': '32500', 'website': 'http://m.wokbox.ca/index.php/locations/british-columbia/abbotsford', 'phone': '+1-604-746-1070', 'opening_hours': 'Su 11:00-20:00; Mo-Sa 11:00-21:00', 'cuisine': 'chinese', 'addr:street': 'South Fraser Way', 'takeaway': 'yes', 'addr:unit': 'E71'}"
357,2441,49.233313,-123.1173462,2019-08-29T17:49:06.000-07:00,restaurant,White Spot,"{'brand:wikidata': 'Q7995414', 'addr:housenumber': '650', 'brand:wikipedia': 'en:White Spot', 'cuisine': 'burger', 'addr:street': 'West 41st Avenue', 'brand': 'White Spot'}"
358,2443,49.2787696,-122.7976283,2013-03-26T23:45:49.000-07:00,restaurant,Togo Sushi,{'cuisine': 'japanese'}
